[
  {
    "full_address": "Temasek Polytechnic, 21 Tampines Avenue 1, Singapore 529757",
    "address_line": "Temasek Polytechnic",
    "address": "21 Tampines Avenue 1",
    "postal_code": "529757",
    "lat": 1.34409,
    "lng": 103.935,
    "name": "Bomb Shelter",
    "description": "Temasek Polytechnic, 21 Tampines Avenue 1, Singapore 529757",
    "id": 0
  },
  {
    "full_address": "Zeb @ BCA Academy, 200 Braddell Road, Singapore 579700",
    "address_line": "Zeb @ BCA Academy",
    "address": "200 Braddell Road",
    "postal_code": "579700",
    "lat": 1.34497,
    "lng": 103.858,
    "name": "Bomb Shelter",
    "description": "Zeb @ BCA Academy, 200 Braddell Road, Singapore 579700",
    "id": 1
  },
  {
    "full_address": "21 Bishan Street 14, Singapore 579781",
    "address_line": "",
    "address": "21 Bishan Street 14",
    "postal_code": "579781",
    "lat": 1.35218,
    "lng": 103.853,
    "name": "Bomb Shelter",
    "description": "21 Bishan Street 14, Singapore 579781",
    "id": 2
  },
  {
    "full_address": "Revenue House, 55 Newton Road, Singapore 307987",
    "address_line": "Revenue House",
    "address": "55 Newton Road",
    "postal_code": "307987",
    "lat": 1.31988,
    "lng": 103.842,
    "name": "Bomb Shelter",
    "description": "Revenue House, 55 Newton Road, Singapore 307987",
    "id": 3
  },
  {
    "full_address": "Nanyang Polytechnic, 180 Ang Mo Kio Avenue 8, Singapore 569830",
    "address_line": "Nanyang Polytechnic",
    "address": "180 Ang Mo Kio Avenue 8",
    "postal_code": "569830",
    "lat": 1.37767,
    "lng": 103.848,
    "name": "Bomb Shelter",
    "description": "Nanyang Polytechnic, 180 Ang Mo Kio Avenue 8, Singapore 569830",
    "id": 4
  },
  {
    "full_address": "The Atrium @ Orchard, 60 Orchard Road, Singapore 238889",
    "address_line": "The Atrium @ Orchard",
    "address": "60 Orchard Road",
    "postal_code": "238889",
    "lat": 1.29945,
    "lng": 103.846,
    "name": "Bomb Shelter",
    "description": "The Atrium @ Orchard, 60 Orchard Road, Singapore 238889",
    "id": 5
  },
  {
    "full_address": "Civil Service College, 31 North Buona Vista Road, Singapore 275983",
    "address_line": "Civil Service College",
    "address": "31 North Buona Vista Road",
    "postal_code": "275983",
    "lat": 1.30994,
    "lng": 103.792,
    "name": "Bomb Shelter",
    "description": "Civil Service College, 31 North Buona Vista Road, Singapore 275983",
    "id": 6
  },
  {
    "full_address": "Synthesis, 6 Fusionopolis Way, Singapore 138636",
    "address_line": "Synthesis",
    "address": "6 Fusionopolis Way",
    "postal_code": "138636",
    "lat": 1.29899,
    "lng": 103.789,
    "name": "Bomb Shelter",
    "description": "Synthesis, 6 Fusionopolis Way, Singapore 138636",
    "id": 7
  },
  {
    "full_address": "Bukit Batok Community Club, 21 Bukit Batok Central, Singapore 659959",
    "address_line": "Bukit Batok Community Club",
    "address": "21 Bukit Batok Central",
    "postal_code": "659959",
    "lat": 1.3502,
    "lng": 103.748,
    "name": "Bomb Shelter",
    "description": "Bukit Batok Community Club, 21 Bukit Batok Central, Singapore 659959",
    "id": 8
  },
  {
    "full_address": "Bukit Panjang Community Club, 8 Pending Road, Singapore 678295",
    "address_line": "Bukit Panjang Community Club",
    "address": "8 Pending Road",
    "postal_code": "678295",
    "lat": 1.37656,
    "lng": 103.771,
    "name": "Bomb Shelter",
    "description": "Bukit Panjang Community Club, 8 Pending Road, Singapore 678295",
    "id": 9
  },
  {
    "full_address": "Chua Chu Kang Community Club, 35 Teck Whye Avenue, Singapore 688892",
    "address_line": "Chua Chu Kang Community Club",
    "address": "35 Teck Whye Avenue",
    "postal_code": "688892",
    "lat": 1.38131,
    "lng": 103.752,
    "name": "Bomb Shelter",
    "description": "Chua Chu Kang Community Club, 35 Teck Whye Avenue, Singapore 688892",
    "id": 10
  },
  {
    "full_address": "Jurong Green Community Club, 6 Jurong West Avenue 1, Singapore 649520",
    "address_line": "Jurong Green Community Club",
    "address": "6 Jurong West Avenue 1",
    "postal_code": "649520",
    "lat": 1.35054,
    "lng": 103.725,
    "name": "Bomb Shelter",
    "description": "Jurong Green Community Club, 6 Jurong West Avenue 1, Singapore 649520",
    "id": 11
  },
  {
    "full_address": "Hong Kah North Community Club, 30 Bukit Batok Street 31, Singapore 659440",
    "address_line": "Hong Kah North Community Club",
    "address": "30 Bukit Batok Street 31",
    "postal_code": "659440",
    "lat": 1.35886,
    "lng": 103.75,
    "name": "Bomb Shelter",
    "description": "Hong Kah North Community Club, 30 Bukit Batok Street 31, Singapore 659440",
    "id": 12
  },
  {
    "full_address": "Nee Soon East Community Club, 1 Yishun Avenue 9, Singapore 768893",
    "address_line": "Nee Soon East Community Club",
    "address": "1 Yishun Avenue 9",
    "postal_code": "768893",
    "lat": 1.43094,
    "lng": 103.839,
    "name": "Bomb Shelter",
    "description": "Nee Soon East Community Club, 1 Yishun Avenue 9, Singapore 768893",
    "id": 13
  },
  {
    "full_address": "Punggol Community Club, 3 Hougang Avenue 6, Singapore 538808",
    "address_line": "Punggol Community Club",
    "address": "3 Hougang Avenue 6",
    "postal_code": "538808",
    "lat": 1.37431,
    "lng": 103.892,
    "name": "Bomb Shelter",
    "description": "Punggol Community Club, 3 Hougang Avenue 6, Singapore 538808",
    "id": 14
  },
  {
    "full_address": "Tampines East Community Club, 10 Tampines Street 23, Singapore 529341",
    "address_line": "Tampines East Community Club",
    "address": "10 Tampines Street 23",
    "postal_code": "529341",
    "lat": 1.35344,
    "lng": 103.955,
    "name": "Bomb Shelter",
    "description": "Tampines East Community Club, 10 Tampines Street 23, Singapore 529341",
    "id": 15
  },
  {
    "full_address": "SSA Headquarters, 10 Tampines Street 81, Singapore 529014",
    "address_line": "SSA Headquarters",
    "address": "10 Tampines Street 81",
    "postal_code": "529014",
    "lat": 1.34776,
    "lng": 103.936,
    "name": "Bomb Shelter",
    "description": "SSA Headquarters, 10 Tampines Street 81, Singapore 529014",
    "id": 16
  },
  {
    "full_address": "Ang Mo Kio Community Centre, 795 Ang Mo Kio Avenue 1, Singapore 569976",
    "address_line": "Ang Mo Kio Community Centre",
    "address": "795 Ang Mo Kio Avenue 1",
    "postal_code": "569976",
    "lat": 1.36693,
    "lng": 103.841,
    "name": "Bomb Shelter",
    "description": "Ang Mo Kio Community Centre, 795 Ang Mo Kio Avenue 1, Singapore 569976",
    "id": 17
  },
  {
    "full_address": "Teck Ghee Community Club, 861 Ang Mo Kio Avenue 10, Singapore 569734",
    "address_line": "Teck Ghee Community Club",
    "address": "861 Ang Mo Kio Avenue 10",
    "postal_code": "569734",
    "lat": 1.36316,
    "lng": 103.854,
    "name": "Bomb Shelter",
    "description": "Teck Ghee Community Club, 861 Ang Mo Kio Avenue 10, Singapore 569734",
    "id": 18
  },
  {
    "full_address": "Telok Blangah Community Club, 450 Telok Blangah Street 31, Singapore 108943",
    "address_line": "Telok Blangah Community Club",
    "address": "450 Telok Blangah Street 31",
    "postal_code": "108943",
    "lat": 1.27494,
    "lng": 103.808,
    "name": "Bomb Shelter",
    "description": "Telok Blangah Community Club, 450 Telok Blangah Street 31, Singapore 108943",
    "id": 19
  },
  {
    "full_address": "Nanyang Community Club, 60 Jurong West Street 91, Singapore 649040",
    "address_line": "Nanyang Community Club",
    "address": "60 Jurong West Street 91",
    "postal_code": "649040",
    "lat": 1.34251,
    "lng": 103.693,
    "name": "Bomb Shelter",
    "description": "Nanyang Community Club, 60 Jurong West Street 91, Singapore 649040",
    "id": 20
  },
  {
    "full_address": "Bishan Community Club, 51 Bishan Street 13, Singapore 579799",
    "address_line": "Bishan Community Club",
    "address": "51 Bishan Street 13",
    "postal_code": "579799",
    "lat": 1.34958,
    "lng": 103.851,
    "name": "Bomb Shelter",
    "description": "Bishan Community Club, 51 Bishan Street 13, Singapore 579799",
    "id": 21
  },
  {
    "full_address": "Marine Parade Community Building, 278 Marine Parade Road, Singapore 449282",
    "address_line": "Marine Parade Community Building",
    "address": "278 Marine Parade Road",
    "postal_code": "449282",
    "lat": 1.30495,
    "lng": 103.91,
    "name": "Bomb Shelter",
    "description": "Marine Parade Community Building, 278 Marine Parade Road, Singapore 449282",
    "id": 22
  },
  {
    "full_address": "Ulu Pandan Community Building, 170 Ghim Moh Road, Singapore 279621",
    "address_line": "Ulu Pandan Community Building",
    "address": "170 Ghim Moh Road",
    "postal_code": "279621",
    "lat": 1.31195,
    "lng": 103.79,
    "name": "Bomb Shelter",
    "description": "Ulu Pandan Community Building, 170 Ghim Moh Road, Singapore 279621",
    "id": 23
  },
  {
    "full_address": "Toa Payoh West Community Club, 200 Lorong 2 Toa Payoh, Singapore 319642",
    "address_line": "Toa Payoh West Community Club",
    "address": "200 Lorong 2 Toa Payoh",
    "postal_code": "319642",
    "lat": 1.33528,
    "lng": 103.845,
    "name": "Bomb Shelter",
    "description": "Toa Payoh West Community Club, 200 Lorong 2 Toa Payoh, Singapore 319642",
    "id": 24
  },
  {
    "full_address": "Zhenghua Community Club, 1 Segar Road, Singapore 677738",
    "address_line": "Zhenghua Community Club",
    "address": "1 Segar Road",
    "postal_code": "677738",
    "lat": 1.38685,
    "lng": 103.772,
    "name": "Bomb Shelter",
    "description": "Zhenghua Community Club, 1 Segar Road, Singapore 677738",
    "id": 25
  },
  {
    "full_address": "Pasir Ris Elias Community Club, 93 Pasir Ris Drive 3, Singapore 519498",
    "address_line": "Pasir Ris Elias Community Club",
    "address": "93 Pasir Ris Drive 3",
    "postal_code": "519498",
    "lat": 1.37857,
    "lng": 103.942,
    "name": "Bomb Shelter",
    "description": "Pasir Ris Elias Community Club, 93 Pasir Ris Drive 3, Singapore 519498",
    "id": 26
  },
  {
    "full_address": "Braddell MRT Station, 377 Lorong 1 Toa Payoh, Singapore 319756",
    "address_line": "Braddell MRT Station",
    "address": "377 Lorong 1 Toa Payoh",
    "postal_code": "319756",
    "lat": 1.3404,
    "lng": 103.847,
    "name": "Bomb Shelter",
    "description": "Braddell MRT Station, 377 Lorong 1 Toa Payoh, Singapore 319756",
    "id": 27
  },
  {
    "full_address": "Newton MRT Station, 49 Scotts Road, Singapore 228234",
    "address_line": "Newton MRT Station",
    "address": "49 Scotts Road",
    "postal_code": "228234",
    "lat": 1.31236,
    "lng": 103.838,
    "name": "Bomb Shelter",
    "description": "Newton MRT Station, 49 Scotts Road, Singapore 228234",
    "id": 28
  },
  {
    "full_address": "Somerset MRT Station, 1 Somerset Road, Singapore 238162",
    "address_line": "Somerset MRT Station",
    "address": "1 Somerset Road",
    "postal_code": "238162",
    "lat": 1.30046,
    "lng": 103.839,
    "name": "Bomb Shelter",
    "description": "Somerset MRT Station, 1 Somerset Road, Singapore 238162",
    "id": 29
  },
  {
    "name": "Bomb Shelter",
    "id": 30
  },
  {
    "full_address": "City Hall MRT Station, 150 North Bridge Road, Singapore 179100",
    "address_line": "City Hall MRT Station",
    "address": "150 North Bridge Road",
    "postal_code": "179100",
    "lat": 1.29297,
    "lng": 103.853,
    "name": "Bomb Shelter",
    "description": "City Hall MRT Station, 150 North Bridge Road, Singapore 179100",
    "id": 31
  },
  {
    "full_address": "Tiong Bahru MRT Station, 300 Tiong Bahru Road, Singapore 168731",
    "address_line": "Tiong Bahru MRT Station",
    "address": "300 Tiong Bahru Road",
    "postal_code": "168731",
    "lat": 1.28621,
    "lng": 103.827,
    "name": "Bomb Shelter",
    "description": "Tiong Bahru MRT Station, 300 Tiong Bahru Road, Singapore 168731",
    "id": 32
  },
  {
    "full_address": "Bugis MRT Station, 220 Victoria Street, Singapore 188022",
    "address_line": "Bugis MRT Station",
    "address": "220 Victoria Street",
    "postal_code": "188022",
    "lat": 1.30043,
    "lng": 103.856,
    "name": "Bomb Shelter",
    "description": "Bugis MRT Station, 220 Victoria Street, Singapore 188022",
    "id": 33
  },
  {
    "full_address": "Lavender MRT Station, 50 Kallang Road, Singapore 208699",
    "address_line": "Lavender MRT Station",
    "address": "50 Kallang Road",
    "postal_code": "208699",
    "lat": 1.30739,
    "lng": 103.863,
    "name": "Bomb Shelter",
    "description": "Lavender MRT Station, 50 Kallang Road, Singapore 208699",
    "id": 34
  },
  {
    "name": "Bomb Shelter",
    "id": 35
  },
  {
    "full_address": "Buangkok MRT Station, 10 Sengkang Central, Singapore 545061",
    "address_line": "Buangkok MRT Station",
    "address": "10 Sengkang Central",
    "postal_code": "545061",
    "lat": 1.38258,
    "lng": 103.893,
    "name": "Bomb Shelter",
    "description": "Buangkok MRT Station, 10 Sengkang Central, Singapore 545061",
    "id": 36
  },
  {
    "full_address": "Hougang MRT Station, 80 Hougang Central, Singapore 538758",
    "address_line": "Hougang MRT Station",
    "address": "80 Hougang Central",
    "postal_code": "538758",
    "lat": 1.37126,
    "lng": 103.893,
    "name": "Bomb Shelter",
    "description": "Hougang MRT Station, 80 Hougang Central, Singapore 538758",
    "id": 37
  },
  {
    "full_address": "Kovan MRT Station, 900 Upper Serangoon Road, Singapore 534799",
    "address_line": "Kovan MRT Station",
    "address": "900 Upper Serangoon Road",
    "postal_code": "534799",
    "lat": 1.36026,
    "lng": 103.885,
    "name": "Bomb Shelter",
    "description": "Kovan MRT Station, 900 Upper Serangoon Road, Singapore 534799",
    "id": 38
  },
  {
    "full_address": "21 Serangoon Central, Singapore 556082",
    "address_line": "",
    "address": "21 Serangoon Central",
    "postal_code": "556082",
    "lat": 1.35083,
    "lng": 103.872,
    "name": "Bomb Shelter",
    "description": "21 Serangoon Central, Singapore 556082",
    "id": 39
  },
  {
    "full_address": "Woodleigh MRT Station, 400 Upper Serangoon Road, Singapore 347695",
    "address_line": "Woodleigh MRT Station",
    "address": "400 Upper Serangoon Road",
    "postal_code": "347695",
    "lat": 1.33929,
    "lng": 103.871,
    "name": "Bomb Shelter",
    "description": "Woodleigh MRT Station, 400 Upper Serangoon Road, Singapore 347695",
    "id": 40
  },
  {
    "full_address": "Potong Pasir MRT Station, 55 Upper Serangoon Road, Singapore 347694",
    "address_line": "Potong Pasir MRT Station",
    "address": "55 Upper Serangoon Road",
    "postal_code": "347694",
    "lat": 1.33163,
    "lng": 103.869,
    "name": "Bomb Shelter",
    "description": "Potong Pasir MRT Station, 55 Upper Serangoon Road, Singapore 347694",
    "id": 41
  },
  {
    "full_address": "Boon Keng MRT Station, 900 Serangoon Road, Singapore 328260",
    "address_line": "Boon Keng MRT Station",
    "address": "900 Serangoon Road",
    "postal_code": "328260",
    "lat": 1.31922,
    "lng": 103.862,
    "name": "Bomb Shelter",
    "description": "Boon Keng MRT Station, 900 Serangoon Road, Singapore 328260",
    "id": 42
  },
  {
    "full_address": "Farrer Park MRT Station, 250 Race Course Road, Singapore 218703",
    "address_line": "Farrer Park MRT Station",
    "address": "250 Race Course Road",
    "postal_code": "218703",
    "lat": 1.31251,
    "lng": 103.854,
    "name": "Bomb Shelter",
    "description": "Farrer Park MRT Station, 250 Race Course Road, Singapore 218703",
    "id": 43
  },
  {
    "full_address": "Little India MRT Station, 60 Bukit Timah Road, Singapore 229900",
    "address_line": "Little India MRT Station",
    "address": "60 Bukit Timah Road",
    "postal_code": "229900",
    "lat": 1.30703,
    "lng": 103.85,
    "name": "Bomb Shelter",
    "description": "Little India MRT Station, 60 Bukit Timah Road, Singapore 229900",
    "id": 44
  },
  {
    "name": "Bomb Shelter",
    "id": 45
  },
  {
    "name": "Bomb Shelter",
    "id": 46
  },
  {
    "name": "Bomb Shelter",
    "id": 47
  },
  {
    "name": "Bomb Shelter",
    "id": 48
  },
  {
    "full_address": "Bartley MRT Station, 90 Bartley Road, Singapore 539788",
    "address_line": "Bartley MRT Station",
    "address": "90 Bartley Road",
    "postal_code": "539788",
    "lat": 1.34313,
    "lng": 103.879,
    "name": "Bomb Shelter",
    "description": "Bartley MRT Station, 90 Bartley Road, Singapore 539788",
    "id": 49
  },
  {
    "full_address": "Lorong Chuan MRT Station, 150 Serangoon Avenue 3, Singapore 554533",
    "address_line": "Lorong Chuan MRT Station",
    "address": "150 Serangoon Avenue 3",
    "postal_code": "554533",
    "lat": 1.35164,
    "lng": 103.864,
    "name": "Bomb Shelter",
    "description": "Lorong Chuan MRT Station, 150 Serangoon Avenue 3, Singapore 554533",
    "id": 50
  },
  {
    "full_address": "Bishan MRT Station, 200 Bishan Road, Singapore 579827",
    "address_line": "Bishan MRT Station",
    "address": "200 Bishan Road",
    "postal_code": "579827",
    "lat": 1.35087,
    "lng": 103.849,
    "name": "Bomb Shelter",
    "description": "Bishan MRT Station, 200 Bishan Road, Singapore 579827",
    "id": 51
  },
  {
    "full_address": "Mountbatten MRT Station, 301 Mountbatten Road, Singapore 398006",
    "address_line": "Mountbatten MRT Station",
    "address": "301 Mountbatten Road",
    "postal_code": "398006",
    "lat": 1.30634,
    "lng": 103.882,
    "name": "Bomb Shelter",
    "description": "Mountbatten MRT Station, 301 Mountbatten Road, Singapore 398006",
    "id": 52
  },
  {
    "full_address": "Dakota MRT Station, 201 Old Airport Road, Singapore 397973",
    "address_line": "Dakota MRT Station",
    "address": "201 Old Airport Road",
    "postal_code": "397973",
    "lat": 1.30835,
    "lng": 103.889,
    "name": "Bomb Shelter",
    "description": "Dakota MRT Station, 201 Old Airport Road, Singapore 397973",
    "id": 53
  },
  {
    "full_address": "10 Circuit Link, Singapore 378956",
    "address_line": "",
    "address": "10 Circuit Link",
    "postal_code": "378956",
    "lat": 1.32626,
    "lng": 103.889,
    "name": "Bomb Shelter",
    "description": "10 Circuit Link, Singapore 378956",
    "id": 54
  },
  {
    "full_address": "Caldecott MRT Station, 38 Toa Payoh Rise, Singapore 298113",
    "address_line": "Caldecott MRT Station",
    "address": "38 Toa Payoh Rise",
    "postal_code": "298113",
    "lat": 1.33771,
    "lng": 103.84,
    "name": "Bomb Shelter",
    "description": "Caldecott MRT Station, 38 Toa Payoh Rise, Singapore 298113",
    "id": 55
  },
  {
    "full_address": "491 Bukit Timah Road, Singapore 259777",
    "address_line": "",
    "address": "491 Bukit Timah Road",
    "postal_code": "259777",
    "lat": 1.32236,
    "lng": 103.816,
    "name": "Bomb Shelter",
    "description": "491 Bukit Timah Road, Singapore 259777",
    "id": 56
  },
  {
    "full_address": "150 North Buona Vista Road, Singapore 139350",
    "address_line": "",
    "address": "150 North Buona Vista Road",
    "postal_code": "139350",
    "lat": 1.3065,
    "lng": 103.791,
    "name": "Bomb Shelter",
    "description": "150 North Buona Vista Road, Singapore 139350",
    "id": 57
  },
  {
    "full_address": "Haw Par Villa MRT Station, 270 Pasir Panjang Road, Singapore 117396",
    "address_line": "Haw Par Villa MRT Station",
    "address": "270 Pasir Panjang Road",
    "postal_code": "117396",
    "lat": 1.28214,
    "lng": 103.782,
    "name": "Bomb Shelter",
    "description": "Haw Par Villa MRT Station, 270 Pasir Panjang Road, Singapore 117396",
    "id": 58
  },
  {
    "full_address": "Labrador Park MRT Station, 701 Telok Blangah Road, Singapore 109029",
    "address_line": "Labrador Park MRT Station",
    "address": "701 Telok Blangah Road",
    "postal_code": "109029",
    "lat": 1.27215,
    "lng": 103.802,
    "name": "Bomb Shelter",
    "description": "Labrador Park MRT Station, 701 Telok Blangah Road, Singapore 109029",
    "id": 59
  },
  {
    "full_address": "Bukit Panjang MRT Station, 950 Upper Bukit Timah Road, Singapore 678213",
    "address_line": "Bukit Panjang MRT Station",
    "address": "950 Upper Bukit Timah Road",
    "postal_code": "678213",
    "lat": 1.37884,
    "lng": 103.762,
    "name": "Bomb Shelter",
    "description": "Bukit Panjang MRT Station, 950 Upper Bukit Timah Road, Singapore 678213",
    "id": 60
  },
  {
    "full_address": "Cashew MRT Station, 1 Cashew Road, Singapore 679696",
    "address_line": "Cashew MRT Station",
    "address": "1 Cashew Road",
    "postal_code": "679696",
    "lat": 1.36907,
    "lng": 103.765,
    "name": "Bomb Shelter",
    "description": "Cashew MRT Station, 1 Cashew Road, Singapore 679696",
    "id": 61
  },
  {
    "full_address": "Hillview MRT Station, 510 Upper Bukit Timah Road, Singapore 678211",
    "address_line": "Hillview MRT Station",
    "address": "510 Upper Bukit Timah Road",
    "postal_code": "678211",
    "lat": 1.36236,
    "lng": 103.767,
    "name": "Bomb Shelter",
    "description": "Hillview MRT Station, 510 Upper Bukit Timah Road, Singapore 678211",
    "id": 62
  },
  {
    "full_address": "Beauty World MRT Station, 101 Upper Bukit Timah Road, Singapore 588216",
    "address_line": "Beauty World MRT Station",
    "address": "101 Upper Bukit Timah Road",
    "postal_code": "588216",
    "lat": 1.34113,
    "lng": 103.776,
    "name": "Bomb Shelter",
    "description": "Beauty World MRT Station, 101 Upper Bukit Timah Road, Singapore 588216",
    "id": 63
  },
  {
    "full_address": "King Albert Park MRT Station, 2 Blackmore Drive, Singapore 599987",
    "address_line": "King Albert Park MRT Station",
    "address": "2 Blackmore Drive",
    "postal_code": "599987",
    "lat": 1.33542,
    "lng": 103.784,
    "name": "Bomb Shelter",
    "description": "King Albert Park MRT Station, 2 Blackmore Drive, Singapore 599987",
    "id": 64
  },
  {
    "full_address": "Sixth Avenue MRT Station, 777 Bukit Timah Road, Singapore 269784",
    "address_line": "Sixth Avenue MRT Station",
    "address": "777 Bukit Timah Road",
    "postal_code": "269784",
    "lat": 1.33074,
    "lng": 103.797,
    "name": "Bomb Shelter",
    "description": "Sixth Avenue MRT Station, 777 Bukit Timah Road, Singapore 269784",
    "id": 65
  },
  {
    "full_address": "Tan Kah Kee MRT Station, 651 Bukit Timah Road, Singapore 266268",
    "address_line": "Tan Kah Kee MRT Station",
    "address": "651 Bukit Timah Road",
    "postal_code": "266268",
    "lat": 1.32589,
    "lng": 103.807,
    "name": "Bomb Shelter",
    "description": "Tan Kah Kee MRT Station, 651 Bukit Timah Road, Singapore 266268",
    "id": 66
  },
  {
    "full_address": "212 Bishan Street 23, Singapore 570212",
    "address_line": "",
    "address": "212 Bishan Street 23",
    "postal_code": "570212",
    "lat": 1.35645,
    "lng": 103.848,
    "name": "Bomb Shelter",
    "description": "212 Bishan Street 23, Singapore 570212",
    "id": 67
  },
  {
    "full_address": "213 Bishan Street 23, Singapore 570213",
    "address_line": "",
    "address": "213 Bishan Street 23",
    "postal_code": "570213",
    "lat": 1.35724,
    "lng": 103.848,
    "name": "Bomb Shelter",
    "description": "213 Bishan Street 23, Singapore 570213",
    "id": 68
  },
  {
    "full_address": "214 Bishan Street 23, Singapore 570214",
    "address_line": "",
    "address": "214 Bishan Street 23",
    "postal_code": "570214",
    "lat": 1.35742,
    "lng": 103.848,
    "name": "Bomb Shelter",
    "description": "214 Bishan Street 23, Singapore 570214",
    "id": 69
  },
  {
    "full_address": "215 Bishan Street 23, Singapore 570215",
    "address_line": "",
    "address": "215 Bishan Street 23",
    "postal_code": "570215",
    "lat": 1.35706,
    "lng": 103.849,
    "name": "Bomb Shelter",
    "description": "215 Bishan Street 23, Singapore 570215",
    "id": 70
  },
  {
    "full_address": "220 Bishan Street 23, Singapore 570220",
    "address_line": "",
    "address": "220 Bishan Street 23",
    "postal_code": "570220",
    "lat": 1.35753,
    "lng": 103.849,
    "name": "Bomb Shelter",
    "description": "220 Bishan Street 23, Singapore 570220",
    "id": 71
  },
  {
    "full_address": "221 Bishan Street 23, Singapore 570221",
    "address_line": "",
    "address": "221 Bishan Street 23",
    "postal_code": "570221",
    "lat": 1.3578,
    "lng": 103.849,
    "name": "Bomb Shelter",
    "description": "221 Bishan Street 23, Singapore 570221",
    "id": 72
  },
  {
    "full_address": "222 Bishan Street 23, Singapore 570222",
    "address_line": "",
    "address": "222 Bishan Street 23",
    "postal_code": "570222",
    "lat": 1.35801,
    "lng": 103.848,
    "name": "Bomb Shelter",
    "description": "222 Bishan Street 23, Singapore 570222",
    "id": 73
  },
  {
    "full_address": "223 Bishan Street 23, Singapore 570223",
    "address_line": "",
    "address": "223 Bishan Street 23",
    "postal_code": "570223",
    "lat": 1.35841,
    "lng": 103.848,
    "name": "Bomb Shelter",
    "description": "223 Bishan Street 23, Singapore 570223",
    "id": 74
  },
  {
    "full_address": "224 Bishan Street 23, Singapore 570224",
    "address_line": "",
    "address": "224 Bishan Street 23",
    "postal_code": "570224",
    "lat": 1.35891,
    "lng": 103.848,
    "name": "Bomb Shelter",
    "description": "224 Bishan Street 23, Singapore 570224",
    "id": 75
  },
  {
    "full_address": "225 Bishan Street 23, Singapore 570225",
    "address_line": "",
    "address": "225 Bishan Street 23",
    "postal_code": "570225",
    "lat": 1.35862,
    "lng": 103.848,
    "name": "Bomb Shelter",
    "description": "225 Bishan Street 23, Singapore 570225",
    "id": 76
  },
  {
    "full_address": "226 Bishan Street 23, Singapore 570226",
    "address_line": "",
    "address": "226 Bishan Street 23",
    "postal_code": "570226",
    "lat": 1.35836,
    "lng": 103.847,
    "name": "Bomb Shelter",
    "description": "226 Bishan Street 23, Singapore 570226",
    "id": 77
  },
  {
    "full_address": "227 Bishan Street 23, Singapore 570227",
    "address_line": "",
    "address": "227 Bishan Street 23",
    "postal_code": "570227",
    "lat": 1.35809,
    "lng": 103.847,
    "name": "Bomb Shelter",
    "description": "227 Bishan Street 23, Singapore 570227",
    "id": 78
  },
  {
    "full_address": "228 Bishan Street 23, Singapore 570228",
    "address_line": "",
    "address": "228 Bishan Street 23",
    "postal_code": "570228",
    "lat": 1.35806,
    "lng": 103.847,
    "name": "Bomb Shelter",
    "description": "228 Bishan Street 23, Singapore 570228",
    "id": 79
  },
  {
    "full_address": "229 Bishan Street 23, Singapore 570229",
    "address_line": "",
    "address": "229 Bishan Street 23",
    "postal_code": "570229",
    "lat": 1.35777,
    "lng": 103.846,
    "name": "Bomb Shelter",
    "description": "229 Bishan Street 23, Singapore 570229",
    "id": 80
  },
  {
    "full_address": "230 Bishan Street 23, Singapore 570230",
    "address_line": "",
    "address": "230 Bishan Street 23",
    "postal_code": "570230",
    "lat": 1.3579,
    "lng": 103.845,
    "name": "Bomb Shelter",
    "description": "230 Bishan Street 23, Singapore 570230",
    "id": 81
  },
  {
    "full_address": "231 Bishan Street 23, Singapore 570231",
    "address_line": "",
    "address": "231 Bishan Street 23",
    "postal_code": "570231",
    "lat": 1.35737,
    "lng": 103.846,
    "name": "Bomb Shelter",
    "description": "231 Bishan Street 23, Singapore 570231",
    "id": 82
  },
  {
    "full_address": "232 Bishan Street 22, Singapore 570232",
    "address_line": "",
    "address": "232 Bishan Street 22",
    "postal_code": "570232",
    "lat": 1.35828,
    "lng": 103.846,
    "name": "Bomb Shelter",
    "description": "232 Bishan Street 22, Singapore 570232",
    "id": 83
  },
  {
    "full_address": "233 Bishan Street 22, Singapore 570233",
    "address_line": "",
    "address": "233 Bishan Street 22",
    "postal_code": "570233",
    "lat": 1.35862,
    "lng": 103.846,
    "name": "Bomb Shelter",
    "description": "233 Bishan Street 22, Singapore 570233",
    "id": 84
  },
  {
    "full_address": "234 Bishan Street 22, Singapore 570234",
    "address_line": "",
    "address": "234 Bishan Street 22",
    "postal_code": "570234",
    "lat": 1.35843,
    "lng": 103.846,
    "name": "Bomb Shelter",
    "description": "234 Bishan Street 22, Singapore 570234",
    "id": 85
  },
  {
    "full_address": "235 Bishan Street 22, Singapore 570235",
    "address_line": "",
    "address": "235 Bishan Street 22",
    "postal_code": "570235",
    "lat": 1.35862,
    "lng": 103.846,
    "name": "Bomb Shelter",
    "description": "235 Bishan Street 22, Singapore 570235",
    "id": 86
  },
  {
    "full_address": "236 Bishan Street 22, Singapore 570236",
    "address_line": "",
    "address": "236 Bishan Street 22",
    "postal_code": "570236",
    "lat": 1.35888,
    "lng": 103.847,
    "name": "Bomb Shelter",
    "description": "236 Bishan Street 22, Singapore 570236",
    "id": 87
  },
  {
    "full_address": "237 Bishan Street 22, Singapore 570237",
    "address_line": "",
    "address": "237 Bishan Street 22",
    "postal_code": "570237",
    "lat": 1.35933,
    "lng": 103.847,
    "name": "Bomb Shelter",
    "description": "237 Bishan Street 22, Singapore 570237",
    "id": 88
  },
  {
    "full_address": "238 Bishan Street 22, Singapore 570238",
    "address_line": "",
    "address": "238 Bishan Street 22",
    "postal_code": "570238",
    "lat": 1.35989,
    "lng": 103.845,
    "name": "Bomb Shelter",
    "description": "238 Bishan Street 22, Singapore 570238",
    "id": 89
  },
  {
    "full_address": "239 Bishan Street 22, Singapore 570239",
    "address_line": "",
    "address": "239 Bishan Street 22",
    "postal_code": "570239",
    "lat": 1.36041,
    "lng": 103.845,
    "name": "Bomb Shelter",
    "description": "239 Bishan Street 22, Singapore 570239",
    "id": 90
  },
  {
    "full_address": "241 Bishan Street 22, Singapore 570241",
    "address_line": "",
    "address": "241 Bishan Street 22",
    "postal_code": "570241",
    "lat": 1.3608,
    "lng": 103.845,
    "name": "Bomb Shelter",
    "description": "241 Bishan Street 22, Singapore 570241",
    "id": 91
  },
  {
    "full_address": "242 Bishan Street 22, Singapore 570242",
    "address_line": "",
    "address": "242 Bishan Street 22",
    "postal_code": "570242",
    "lat": 1.36132,
    "lng": 103.845,
    "name": "Bomb Shelter",
    "description": "242 Bishan Street 22, Singapore 570242",
    "id": 92
  },
  {
    "full_address": "243 Bishan Street 22, Singapore 570243",
    "address_line": "",
    "address": "243 Bishan Street 22",
    "postal_code": "570243",
    "lat": 1.36111,
    "lng": 103.845,
    "name": "Bomb Shelter",
    "description": "243 Bishan Street 22, Singapore 570243",
    "id": 93
  },
  {
    "full_address": "245 Bishan Street 22, Singapore 570245",
    "address_line": "",
    "address": "245 Bishan Street 22",
    "postal_code": "570245",
    "lat": 1.36045,
    "lng": 103.844,
    "name": "Bomb Shelter",
    "description": "245 Bishan Street 22, Singapore 570245",
    "id": 94
  },
  {
    "full_address": "246 Bishan Street 22, Singapore 570246",
    "address_line": "",
    "address": "246 Bishan Street 22",
    "postal_code": "570246",
    "lat": 1.36068,
    "lng": 103.843,
    "name": "Bomb Shelter",
    "description": "246 Bishan Street 22, Singapore 570246",
    "id": 95
  },
  {
    "full_address": "248 Bishan Street 22, Singapore 570248",
    "address_line": "",
    "address": "248 Bishan Street 22",
    "postal_code": "570248",
    "lat": 1.36139,
    "lng": 103.843,
    "name": "Bomb Shelter",
    "description": "248 Bishan Street 22, Singapore 570248",
    "id": 96
  },
  {
    "full_address": "249 Bishan Street 22, Singapore 570249",
    "address_line": "",
    "address": "249 Bishan Street 22",
    "postal_code": "570249",
    "lat": 1.36116,
    "lng": 103.844,
    "name": "Bomb Shelter",
    "description": "249 Bishan Street 22, Singapore 570249",
    "id": 97
  },
  {
    "full_address": "250 Bishan Street 22, Singapore 570250",
    "address_line": "",
    "address": "250 Bishan Street 22",
    "postal_code": "570250",
    "lat": 1.36157,
    "lng": 103.844,
    "name": "Bomb Shelter",
    "description": "250 Bishan Street 22, Singapore 570250",
    "id": 98
  },
  {
    "full_address": "251 Bishan Street 22, Singapore 570251",
    "address_line": "",
    "address": "251 Bishan Street 22",
    "postal_code": "570251",
    "lat": 1.36179,
    "lng": 103.844,
    "name": "Bomb Shelter",
    "description": "251 Bishan Street 22, Singapore 570251",
    "id": 99
  },
  {
    "full_address": "253 Bishan Street 22, Singapore 570253",
    "address_line": "",
    "address": "253 Bishan Street 22",
    "postal_code": "570253",
    "lat": 1.3622,
    "lng": 103.843,
    "name": "Bomb Shelter",
    "description": "253 Bishan Street 22, Singapore 570253",
    "id": 100
  },
  {
    "full_address": "254 Bishan Street 22, Singapore 570254",
    "address_line": "",
    "address": "254 Bishan Street 22",
    "postal_code": "570254",
    "lat": 1.36193,
    "lng": 103.843,
    "name": "Bomb Shelter",
    "description": "254 Bishan Street 22, Singapore 570254",
    "id": 101
  },
  {
    "full_address": "255 Bishan Street 22, Singapore 570255",
    "address_line": "",
    "address": "255 Bishan Street 22",
    "postal_code": "570255",
    "lat": 1.36158,
    "lng": 103.843,
    "name": "Bomb Shelter",
    "description": "255 Bishan Street 22, Singapore 570255",
    "id": 102
  },
  {
    "full_address": "256 Bishan Street 22, Singapore 570256",
    "address_line": "",
    "address": "256 Bishan Street 22",
    "postal_code": "570256",
    "lat": 1.36137,
    "lng": 103.843,
    "name": "Bomb Shelter",
    "description": "256 Bishan Street 22, Singapore 570256",
    "id": 103
  },
  {
    "full_address": "257 Bishan Street 22, Singapore 570257",
    "address_line": "",
    "address": "257 Bishan Street 22",
    "postal_code": "570257",
    "lat": 1.35992,
    "lng": 103.843,
    "name": "Bomb Shelter",
    "description": "257 Bishan Street 22, Singapore 570257",
    "id": 104
  },
  {
    "full_address": "259 Bishan Street 22, Singapore 570259",
    "address_line": "",
    "address": "259 Bishan Street 22",
    "postal_code": "570259",
    "lat": 1.35989,
    "lng": 103.842,
    "name": "Bomb Shelter",
    "description": "259 Bishan Street 22, Singapore 570259",
    "id": 105
  },
  {
    "full_address": "260 Bishan Street 22, Singapore 570260",
    "address_line": "",
    "address": "260 Bishan Street 22",
    "postal_code": "570260",
    "lat": 1.35967,
    "lng": 103.842,
    "name": "Bomb Shelter",
    "description": "260 Bishan Street 22, Singapore 570260",
    "id": 106
  },
  {
    "full_address": "261 Bishan Street 22, Singapore 570261",
    "address_line": "",
    "address": "261 Bishan Street 22",
    "postal_code": "570261",
    "lat": 1.35918,
    "lng": 103.843,
    "name": "Bomb Shelter",
    "description": "261 Bishan Street 22, Singapore 570261",
    "id": 107
  },
  {
    "full_address": "262 Bishan Street 22, Singapore 570262",
    "address_line": "",
    "address": "262 Bishan Street 22",
    "postal_code": "570262",
    "lat": 1.35917,
    "lng": 103.843,
    "name": "Bomb Shelter",
    "description": "262 Bishan Street 22, Singapore 570262",
    "id": 108
  },
  {
    "full_address": "264 Bishan Street 24, Singapore 570264",
    "address_line": "",
    "address": "264 Bishan Street 24",
    "postal_code": "570264",
    "lat": 1.35864,
    "lng": 103.842,
    "name": "Bomb Shelter",
    "description": "264 Bishan Street 24, Singapore 570264",
    "id": 109
  },
  {
    "full_address": "268 Bishan Street 24, Singapore 570268",
    "address_line": "",
    "address": "268 Bishan Street 24",
    "postal_code": "570268",
    "lat": 1.35746,
    "lng": 103.842,
    "name": "Bomb Shelter",
    "description": "268 Bishan Street 24, Singapore 570268",
    "id": 110
  },
  {
    "full_address": "269 Bishan Street 24, Singapore 570269",
    "address_line": "",
    "address": "269 Bishan Street 24",
    "postal_code": "570269",
    "lat": 1.35685,
    "lng": 103.843,
    "name": "Bomb Shelter",
    "description": "269 Bishan Street 24, Singapore 570269",
    "id": 111
  },
  {
    "full_address": "270 Bishan Street 24, Singapore 570270",
    "address_line": "",
    "address": "270 Bishan Street 24",
    "postal_code": "570270",
    "lat": 1.35692,
    "lng": 103.842,
    "name": "Bomb Shelter",
    "description": "270 Bishan Street 24, Singapore 570270",
    "id": 112
  },
  {
    "full_address": "271 Bishan Street 24, Singapore 570271",
    "address_line": "",
    "address": "271 Bishan Street 24",
    "postal_code": "570271",
    "lat": 1.35658,
    "lng": 103.842,
    "name": "Bomb Shelter",
    "description": "271 Bishan Street 24, Singapore 570271",
    "id": 113
  },
  {
    "full_address": "272 Bishan Street 24, Singapore 570272",
    "address_line": "",
    "address": "272 Bishan Street 24",
    "postal_code": "570272",
    "lat": 1.35636,
    "lng": 103.843,
    "name": "Bomb Shelter",
    "description": "272 Bishan Street 24, Singapore 570272",
    "id": 114
  },
  {
    "full_address": "Bishan Heights, 288 Bishan Street 24, Singapore 570288",
    "address_line": "Bishan Heights",
    "address": "288 Bishan Street 24",
    "postal_code": "570288",
    "lat": 1.35691,
    "lng": 103.845,
    "name": "Bomb Shelter",
    "description": "Bishan Heights, 288 Bishan Street 24, Singapore 570288",
    "id": 115
  },
  {
    "full_address": "Bishan Heights, 293 Bishan Street 22, Singapore 570293",
    "address_line": "Bishan Heights",
    "address": "293 Bishan Street 22",
    "postal_code": "570293",
    "lat": 1.35626,
    "lng": 103.846,
    "name": "Bomb Shelter",
    "description": "Bishan Heights, 293 Bishan Street 22, Singapore 570293",
    "id": 116
  },
  {
    "full_address": "30A Holland Close, Singapore 271030",
    "address_line": "",
    "address": "30A Holland Close",
    "postal_code": "271030",
    "lat": 1.30755,
    "lng": 103.797,
    "name": "Bomb Shelter",
    "description": "30A Holland Close, Singapore 271030",
    "id": 117
  },
  {
    "full_address": "3A Holland Close, Singapore 272003",
    "address_line": "",
    "address": "3A Holland Close",
    "postal_code": "272003",
    "lat": 1.30868,
    "lng": 103.797,
    "name": "Bomb Shelter",
    "description": "3A Holland Close, Singapore 272003",
    "id": 118
  },
  {
    "full_address": "6 Boon Keng Road, Singapore 330006",
    "address_line": "",
    "address": "6 Boon Keng Road",
    "postal_code": "330006",
    "lat": 1.31697,
    "lng": 103.861,
    "name": "Bomb Shelter",
    "description": "6 Boon Keng Road, Singapore 330006",
    "id": 119
  },
  {
    "full_address": "4C Saint George's Lane, Singapore 322004",
    "address_line": "",
    "address": "4C Saint George's Lane",
    "postal_code": "322004",
    "lat": 1.32231,
    "lng": 103.861,
    "name": "Bomb Shelter",
    "description": "4C Saint George's Lane, Singapore 322004",
    "id": 120
  },
  {
    "full_address": "40 Cambridge Road, Singapore 210040",
    "address_line": "",
    "address": "40 Cambridge Road",
    "postal_code": "210040",
    "lat": 1.31592,
    "lng": 103.848,
    "name": "Bomb Shelter",
    "description": "40 Cambridge Road, Singapore 210040",
    "id": 121
  },
  {
    "full_address": "21 Queen's Close, Singapore 140021",
    "address_line": "",
    "address": "21 Queen's Close",
    "postal_code": "140021",
    "lat": 1.29328,
    "lng": 103.8,
    "name": "Bomb Shelter",
    "description": "21 Queen's Close, Singapore 140021",
    "id": 122
  },
  {
    "full_address": "Rumah Tinggi View, 35 Jalan Rumah Tinggi, Singapore 150035",
    "address_line": "Rumah Tinggi View",
    "address": "35 Jalan Rumah Tinggi",
    "postal_code": "150035",
    "lat": 1.28817,
    "lng": 103.809,
    "name": "Bomb Shelter",
    "description": "Rumah Tinggi View, 35 Jalan Rumah Tinggi, Singapore 150035",
    "id": 123
  },
  {
    "full_address": "Rumah Tinggi View, 36 Jalan Rumah Tinggi, Singapore 150036",
    "address_line": "Rumah Tinggi View",
    "address": "36 Jalan Rumah Tinggi",
    "postal_code": "150036",
    "lat": 1.28869,
    "lng": 103.809,
    "name": "Bomb Shelter",
    "description": "Rumah Tinggi View, 36 Jalan Rumah Tinggi, Singapore 150036",
    "id": 124
  },
  {
    "full_address": "82 Strathmore Avenue, Singapore 141082",
    "address_line": "",
    "address": "82 Strathmore Avenue",
    "postal_code": "141082",
    "lat": 1.29476,
    "lng": 103.809,
    "name": "Bomb Shelter",
    "description": "82 Strathmore Avenue, Singapore 141082",
    "id": 125
  },
  {
    "full_address": "82 Redhill Lane, Singapore 150082",
    "address_line": "",
    "address": "82 Redhill Lane",
    "postal_code": "150082",
    "lat": 1.28746,
    "lng": 103.82,
    "name": "Bomb Shelter",
    "description": "82 Redhill Lane, Singapore 150082",
    "id": 126
  },
  {
    "full_address": "125 Bukit Merah View, Singapore 151125",
    "address_line": "",
    "address": "125 Bukit Merah View",
    "postal_code": "151125",
    "lat": 1.28514,
    "lng": 103.824,
    "name": "Bomb Shelter",
    "description": "125 Bukit Merah View, Singapore 151125",
    "id": 127
  },
  {
    "full_address": "Clarence Ville, 132 Clarence Lane, Singapore 140132",
    "address_line": "Clarence Ville",
    "address": "132 Clarence Lane",
    "postal_code": "140132",
    "lat": 1.2923,
    "lng": 103.815,
    "name": "Bomb Shelter",
    "description": "Clarence Ville, 132 Clarence Lane, Singapore 140132",
    "id": 128
  },
  {
    "full_address": "123 Kim Tian Road, Singapore 160123",
    "address_line": "",
    "address": "123 Kim Tian Road",
    "postal_code": "160123",
    "lat": 1.28379,
    "lng": 103.829,
    "name": "Bomb Shelter",
    "description": "123 Kim Tian Road, Singapore 160123",
    "id": 129
  },
  {
    "full_address": "Toa Payoh Green, 172A Lorong 1 Toa Payoh, Singapore 311172",
    "address_line": "Toa Payoh Green",
    "address": "172A Lorong 1 Toa Payoh",
    "postal_code": "311172",
    "lat": 1.3303,
    "lng": 103.842,
    "name": "Bomb Shelter",
    "description": "Toa Payoh Green, 172A Lorong 1 Toa Payoh, Singapore 311172",
    "id": 130
  },
  {
    "full_address": "80A Lorong 4 Toa Payoh, Singapore 311080",
    "address_line": "",
    "address": "80A Lorong 4 Toa Payoh",
    "postal_code": "311080",
    "lat": 1.33536,
    "lng": 103.849,
    "name": "Bomb Shelter",
    "description": "80A Lorong 4 Toa Payoh, Singapore 311080",
    "id": 131
  },
  {
    "full_address": "80B Lorong 4 Toa Payoh, Singapore 312080",
    "address_line": "",
    "address": "80B Lorong 4 Toa Payoh",
    "postal_code": "312080",
    "lat": 1.33538,
    "lng": 103.85,
    "name": "Bomb Shelter",
    "description": "80B Lorong 4 Toa Payoh, Singapore 312080",
    "id": 132
  },
  {
    "full_address": "86 Lorong 2 Toa Payoh, Singapore 310086",
    "address_line": "",
    "address": "86 Lorong 2 Toa Payoh",
    "postal_code": "310086",
    "lat": 1.33539,
    "lng": 103.848,
    "name": "Bomb Shelter",
    "description": "86 Lorong 2 Toa Payoh, Singapore 310086",
    "id": 133
  },
  {
    "full_address": "East Payoh Spring, 43 Lorong 5 Toa Payoh, Singapore 310043",
    "address_line": "East Payoh Spring",
    "address": "43 Lorong 5 Toa Payoh",
    "postal_code": "310043",
    "lat": 1.33591,
    "lng": 103.854,
    "name": "Bomb Shelter",
    "description": "East Payoh Spring, 43 Lorong 5 Toa Payoh, Singapore 310043",
    "id": 134
  },
  {
    "full_address": "East Payoh Palm, 50 Lorong 5 Toa Payoh, Singapore 310050",
    "address_line": "East Payoh Palm",
    "address": "50 Lorong 5 Toa Payoh",
    "postal_code": "310050",
    "lat": 1.33723,
    "lng": 103.853,
    "name": "Bomb Shelter",
    "description": "East Payoh Palm, 50 Lorong 5 Toa Payoh, Singapore 310050",
    "id": 135
  },
  {
    "full_address": "Whampoa Gardens, 115 Whampoa Road, Singapore 320115",
    "address_line": "Whampoa Gardens",
    "address": "115 Whampoa Road",
    "postal_code": "320115",
    "lat": 1.32641,
    "lng": 103.857,
    "name": "Bomb Shelter",
    "description": "Whampoa Gardens, 115 Whampoa Road, Singapore 320115",
    "id": 136
  },
  {
    "full_address": "10C Bedok South Avenue 2, Singapore 462010",
    "address_line": "",
    "address": "10C Bedok South Avenue 2",
    "postal_code": "462010",
    "lat": 1.32218,
    "lng": 103.936,
    "name": "Bomb Shelter",
    "description": "10C Bedok South Avenue 2, Singapore 462010",
    "id": 137
  },
  {
    "full_address": "243 Simei Street 5, Singapore 520243",
    "address_line": "",
    "address": "243 Simei Street 5",
    "postal_code": "520243",
    "lat": 1.34398,
    "lng": 103.955,
    "name": "Bomb Shelter",
    "description": "243 Simei Street 5, Singapore 520243",
    "id": 138
  },
  {
    "full_address": "256 Simei Street 1, Singapore 520256",
    "address_line": "",
    "address": "256 Simei Street 1",
    "postal_code": "520256",
    "lat": 1.34296,
    "lng": 103.952,
    "name": "Bomb Shelter",
    "description": "256 Simei Street 1, Singapore 520256",
    "id": 139
  },
  {
    "full_address": "302 Tampines Street 32, Singapore 520302",
    "address_line": "",
    "address": "302 Tampines Street 32",
    "postal_code": "520302",
    "lat": 1.35243,
    "lng": 103.955,
    "name": "Bomb Shelter",
    "description": "302 Tampines Street 32, Singapore 520302",
    "id": 140
  },
  {
    "full_address": "313 Tampines Street 33, Singapore 520313",
    "address_line": "",
    "address": "313 Tampines Street 33",
    "postal_code": "520313",
    "lat": 1.35229,
    "lng": 103.957,
    "name": "Bomb Shelter",
    "description": "313 Tampines Street 33, Singapore 520313",
    "id": 141
  },
  {
    "full_address": "316 Tampines Street 33, Singapore 520316",
    "address_line": "",
    "address": "316 Tampines Street 33",
    "postal_code": "520316",
    "lat": 1.35171,
    "lng": 103.958,
    "name": "Bomb Shelter",
    "description": "316 Tampines Street 33, Singapore 520316",
    "id": 142
  },
  {
    "full_address": "328 Tampines Street 32, Singapore 520328",
    "address_line": "",
    "address": "328 Tampines Street 32",
    "postal_code": "520328",
    "lat": 1.35343,
    "lng": 103.958,
    "name": "Bomb Shelter",
    "description": "328 Tampines Street 32, Singapore 520328",
    "id": 143
  },
  {
    "full_address": "333 Tampines Street 32, Singapore 520333",
    "address_line": "",
    "address": "333 Tampines Street 32",
    "postal_code": "520333",
    "lat": 1.35322,
    "lng": 103.961,
    "name": "Bomb Shelter",
    "description": "333 Tampines Street 32, Singapore 520333",
    "id": 144
  },
  {
    "full_address": "338 Tampines Street 33, Singapore 520338",
    "address_line": "",
    "address": "338 Tampines Street 33",
    "postal_code": "520338",
    "lat": 1.35182,
    "lng": 103.96,
    "name": "Bomb Shelter",
    "description": "338 Tampines Street 33, Singapore 520338",
    "id": 145
  },
  {
    "full_address": "343 Tampines Street 33, Singapore 520343",
    "address_line": "",
    "address": "343 Tampines Street 33",
    "postal_code": "520343",
    "lat": 1.35182,
    "lng": 103.961,
    "name": "Bomb Shelter",
    "description": "343 Tampines Street 33, Singapore 520343",
    "id": 146
  },
  {
    "full_address": "345 Tampines Street 33, Singapore 520345",
    "address_line": "",
    "address": "345 Tampines Street 33",
    "postal_code": "520345",
    "lat": 1.35188,
    "lng": 103.962,
    "name": "Bomb Shelter",
    "description": "345 Tampines Street 33, Singapore 520345",
    "id": 147
  },
  {
    "full_address": "349 Tampines Street 33, Singapore 520349",
    "address_line": "",
    "address": "349 Tampines Street 33",
    "postal_code": "520349",
    "lat": 1.35355,
    "lng": 103.963,
    "name": "Bomb Shelter",
    "description": "349 Tampines Street 33, Singapore 520349",
    "id": 148
  },
  {
    "full_address": "645 Jalan Tenaga, Singapore 410645",
    "address_line": "",
    "address": "645 Jalan Tenaga",
    "postal_code": "410645",
    "lat": 1.33162,
    "lng": 103.907,
    "name": "Bomb Shelter",
    "description": "645 Jalan Tenaga, Singapore 410645",
    "id": 149
  },
  {
    "full_address": "Eunos Damai Ville, 651 Jalan Tenaga, Singapore 410651",
    "address_line": "Eunos Damai Ville",
    "address": "651 Jalan Tenaga",
    "postal_code": "410651",
    "lat": 1.33221,
    "lng": 103.907,
    "name": "Bomb Shelter",
    "description": "Eunos Damai Ville, 651 Jalan Tenaga, Singapore 410651",
    "id": 150
  },
  {
    "full_address": "Eunos Damai Ville, 655 Jalan Tenaga, Singapore 410655",
    "address_line": "Eunos Damai Ville",
    "address": "655 Jalan Tenaga",
    "postal_code": "410655",
    "lat": 1.33338,
    "lng": 103.907,
    "name": "Bomb Shelter",
    "description": "Eunos Damai Ville, 655 Jalan Tenaga, Singapore 410655",
    "id": 151
  },
  {
    "full_address": "Eunos Damai Ville, 660 Jalan Tenaga, Singapore 410660",
    "address_line": "Eunos Damai Ville",
    "address": "660 Jalan Tenaga",
    "postal_code": "410660",
    "lat": 1.33437,
    "lng": 103.907,
    "name": "Bomb Shelter",
    "description": "Eunos Damai Ville, 660 Jalan Tenaga, Singapore 410660",
    "id": 152
  },
  {
    "full_address": "Eunos Damai Ville, 661 Jalan Damai, Singapore 410661",
    "address_line": "Eunos Damai Ville",
    "address": "661 Jalan Damai",
    "postal_code": "410661",
    "lat": 1.33458,
    "lng": 103.908,
    "name": "Bomb Shelter",
    "description": "Eunos Damai Ville, 661 Jalan Damai, Singapore 410661",
    "id": 153
  },
  {
    "full_address": "Eunos Damai Ville, 671 Jalan Damai, Singapore 410671",
    "address_line": "Eunos Damai Ville",
    "address": "671 Jalan Damai",
    "postal_code": "410671",
    "lat": 1.33247,
    "lng": 103.909,
    "name": "Bomb Shelter",
    "description": "Eunos Damai Ville, 671 Jalan Damai, Singapore 410671",
    "id": 154
  },
  {
    "full_address": "Ansar Garden, 29A Chai Chee Avenue, Singapore 461029",
    "address_line": "Ansar Garden",
    "address": "29A Chai Chee Avenue",
    "postal_code": "461029",
    "lat": 1.32478,
    "lng": 103.924,
    "name": "Bomb Shelter",
    "description": "Ansar Garden, 29A Chai Chee Avenue, Singapore 461029",
    "id": 155
  },
  {
    "full_address": "42 Circuit Road, Singapore 370042",
    "address_line": "",
    "address": "42 Circuit Road",
    "postal_code": "370042",
    "lat": 1.32681,
    "lng": 103.886,
    "name": "Bomb Shelter",
    "description": "42 Circuit Road, Singapore 370042",
    "id": 156
  },
  {
    "full_address": "55 Pipit Road, Singapore 370055",
    "address_line": "",
    "address": "55 Pipit Road",
    "postal_code": "370055",
    "lat": 1.3239,
    "lng": 103.888,
    "name": "Bomb Shelter",
    "description": "55 Pipit Road, Singapore 370055",
    "id": 157
  },
  {
    "full_address": "136 Pasir Ris Street 11, Singapore 510136",
    "address_line": "",
    "address": "136 Pasir Ris Street 11",
    "postal_code": "510136",
    "lat": 1.36481,
    "lng": 103.958,
    "name": "Bomb Shelter",
    "description": "136 Pasir Ris Street 11, Singapore 510136",
    "id": 158
  },
  {
    "full_address": "138 Pasir Ris Street 11, Singapore 510138",
    "address_line": "",
    "address": "138 Pasir Ris Street 11",
    "postal_code": "510138",
    "lat": 1.36358,
    "lng": 103.96,
    "name": "Bomb Shelter",
    "description": "138 Pasir Ris Street 11, Singapore 510138",
    "id": 159
  },
  {
    "full_address": "148 Pasir Ris Street 13, Singapore 510148",
    "address_line": "",
    "address": "148 Pasir Ris Street 13",
    "postal_code": "510148",
    "lat": 1.36221,
    "lng": 103.962,
    "name": "Bomb Shelter",
    "description": "148 Pasir Ris Street 13, Singapore 510148",
    "id": 160
  },
  {
    "full_address": "156 Pasir Ris Street 13, Singapore 510156",
    "address_line": "",
    "address": "156 Pasir Ris Street 13",
    "postal_code": "510156",
    "lat": 1.36407,
    "lng": 103.963,
    "name": "Bomb Shelter",
    "description": "156 Pasir Ris Street 13, Singapore 510156",
    "id": 161
  },
  {
    "full_address": "185 Pasir Ris Street 11, Singapore 510185",
    "address_line": "",
    "address": "185 Pasir Ris Street 11",
    "postal_code": "510185",
    "lat": 1.36566,
    "lng": 103.96,
    "name": "Bomb Shelter",
    "description": "185 Pasir Ris Street 11, Singapore 510185",
    "id": 162
  },
  {
    "full_address": "192 Pasir Ris Street 12, Singapore 510192",
    "address_line": "",
    "address": "192 Pasir Ris Street 12",
    "postal_code": "510192",
    "lat": 1.36647,
    "lng": 103.959,
    "name": "Bomb Shelter",
    "description": "192 Pasir Ris Street 12, Singapore 510192",
    "id": 163
  },
  {
    "full_address": "194 Pasir Ris Street 12, Singapore 510194",
    "address_line": "",
    "address": "194 Pasir Ris Street 12",
    "postal_code": "510194",
    "lat": 1.36614,
    "lng": 103.96,
    "name": "Bomb Shelter",
    "description": "194 Pasir Ris Street 12, Singapore 510194",
    "id": 164
  },
  {
    "full_address": "207 Pasir Ris Street 21, Singapore 510207",
    "address_line": "",
    "address": "207 Pasir Ris Street 21",
    "postal_code": "510207",
    "lat": 1.36656,
    "lng": 103.962,
    "name": "Bomb Shelter",
    "description": "207 Pasir Ris Street 21, Singapore 510207",
    "id": 165
  },
  {
    "full_address": "212 Pasir Ris Street 21, Singapore 510212",
    "address_line": "",
    "address": "212 Pasir Ris Street 21",
    "postal_code": "510212",
    "lat": 1.36748,
    "lng": 103.961,
    "name": "Bomb Shelter",
    "description": "212 Pasir Ris Street 21, Singapore 510212",
    "id": 166
  },
  {
    "full_address": "220 Pasir Ris Street 21, Singapore 510220",
    "address_line": "",
    "address": "220 Pasir Ris Street 21",
    "postal_code": "510220",
    "lat": 1.36976,
    "lng": 103.962,
    "name": "Bomb Shelter",
    "description": "220 Pasir Ris Street 21, Singapore 510220",
    "id": 167
  },
  {
    "full_address": "221 Pasir Ris Street 21, Singapore 510221",
    "address_line": "",
    "address": "221 Pasir Ris Street 21",
    "postal_code": "510221",
    "lat": 1.37032,
    "lng": 103.962,
    "name": "Bomb Shelter",
    "description": "221 Pasir Ris Street 21, Singapore 510221",
    "id": 168
  },
  {
    "full_address": "226 Pasir Ris Street 21, Singapore 510226",
    "address_line": "",
    "address": "226 Pasir Ris Street 21",
    "postal_code": "510226",
    "lat": 1.37126,
    "lng": 103.962,
    "name": "Bomb Shelter",
    "description": "226 Pasir Ris Street 21, Singapore 510226",
    "id": 169
  },
  {
    "full_address": "230 Pasir Ris Street 21, Singapore 510230",
    "address_line": "",
    "address": "230 Pasir Ris Street 21",
    "postal_code": "510230",
    "lat": 1.37267,
    "lng": 103.961,
    "name": "Bomb Shelter",
    "description": "230 Pasir Ris Street 21, Singapore 510230",
    "id": 170
  },
  {
    "full_address": "233 Pasir Ris Drive 4, Singapore 510233",
    "address_line": "",
    "address": "233 Pasir Ris Drive 4",
    "postal_code": "510233",
    "lat": 1.37408,
    "lng": 103.962,
    "name": "Bomb Shelter",
    "description": "233 Pasir Ris Drive 4, Singapore 510233",
    "id": 171
  },
  {
    "full_address": "247 Pasir Ris Street 21, Singapore 510247",
    "address_line": "",
    "address": "247 Pasir Ris Street 21",
    "postal_code": "510247",
    "lat": 1.37072,
    "lng": 103.962,
    "name": "Bomb Shelter",
    "description": "247 Pasir Ris Street 21, Singapore 510247",
    "id": 172
  },
  {
    "full_address": "252 Pasir Ris Street 21, Singapore 510252",
    "address_line": "",
    "address": "252 Pasir Ris Street 21",
    "postal_code": "510252",
    "lat": 1.36822,
    "lng": 103.963,
    "name": "Bomb Shelter",
    "description": "252 Pasir Ris Street 21, Singapore 510252",
    "id": 173
  },
  {
    "full_address": "273 Pasir Ris Street 21, Singapore 510273",
    "address_line": "",
    "address": "273 Pasir Ris Street 21",
    "postal_code": "510273",
    "lat": 1.3647,
    "lng": 103.964,
    "name": "Bomb Shelter",
    "description": "273 Pasir Ris Street 21, Singapore 510273",
    "id": 174
  },
  {
    "full_address": "448 Pasir Ris Drive 6, Singapore 510448",
    "address_line": "",
    "address": "448 Pasir Ris Drive 6",
    "postal_code": "510448",
    "lat": 1.37061,
    "lng": 103.958,
    "name": "Bomb Shelter",
    "description": "448 Pasir Ris Drive 6, Singapore 510448",
    "id": 175
  },
  {
    "full_address": "450 Pasir Ris Drive 6, Singapore 510450",
    "address_line": "",
    "address": "450 Pasir Ris Drive 6",
    "postal_code": "510450",
    "lat": 1.37121,
    "lng": 103.958,
    "name": "Bomb Shelter",
    "description": "450 Pasir Ris Drive 6, Singapore 510450",
    "id": 176
  },
  {
    "full_address": "451 Pasir Ris Drive 6, Singapore 510451",
    "address_line": "",
    "address": "451 Pasir Ris Drive 6",
    "postal_code": "510451",
    "lat": 1.37144,
    "lng": 103.958,
    "name": "Bomb Shelter",
    "description": "451 Pasir Ris Drive 6, Singapore 510451",
    "id": 177
  },
  {
    "full_address": "452 Pasir Ris Drive 6, Singapore 510452",
    "address_line": "",
    "address": "452 Pasir Ris Drive 6",
    "postal_code": "510452",
    "lat": 1.37154,
    "lng": 103.957,
    "name": "Bomb Shelter",
    "description": "452 Pasir Ris Drive 6, Singapore 510452",
    "id": 178
  },
  {
    "full_address": "453 Pasir Ris Drive 6, Singapore 510453",
    "address_line": "",
    "address": "453 Pasir Ris Drive 6",
    "postal_code": "510453",
    "lat": 1.37182,
    "lng": 103.957,
    "name": "Bomb Shelter",
    "description": "453 Pasir Ris Drive 6, Singapore 510453",
    "id": 179
  },
  {
    "full_address": "454 Pasir Ris Drive 6, Singapore 510454",
    "address_line": "",
    "address": "454 Pasir Ris Drive 6",
    "postal_code": "510454",
    "lat": 1.37202,
    "lng": 103.958,
    "name": "Bomb Shelter",
    "description": "454 Pasir Ris Drive 6, Singapore 510454",
    "id": 180
  },
  {
    "full_address": "472 Pasir Ris Drive 6, Singapore 510472",
    "address_line": "",
    "address": "472 Pasir Ris Drive 6",
    "postal_code": "510472",
    "lat": 1.37424,
    "lng": 103.957,
    "name": "Bomb Shelter",
    "description": "472 Pasir Ris Drive 6, Singapore 510472",
    "id": 181
  },
  {
    "full_address": "473 Pasir Ris Drive 6, Singapore 510473",
    "address_line": "",
    "address": "473 Pasir Ris Drive 6",
    "postal_code": "510473",
    "lat": 1.37456,
    "lng": 103.957,
    "name": "Bomb Shelter",
    "description": "473 Pasir Ris Drive 6, Singapore 510473",
    "id": 182
  },
  {
    "full_address": "474 Pasir Ris Drive 6, Singapore 510474",
    "address_line": "",
    "address": "474 Pasir Ris Drive 6",
    "postal_code": "510474",
    "lat": 1.37472,
    "lng": 103.957,
    "name": "Bomb Shelter",
    "description": "474 Pasir Ris Drive 6, Singapore 510474",
    "id": 183
  },
  {
    "full_address": "475 Pasir Ris Drive 6, Singapore 510475",
    "address_line": "",
    "address": "475 Pasir Ris Drive 6",
    "postal_code": "510475",
    "lat": 1.37504,
    "lng": 103.957,
    "name": "Bomb Shelter",
    "description": "475 Pasir Ris Drive 6, Singapore 510475",
    "id": 184
  },
  {
    "full_address": "476 Pasir Ris Drive 6, Singapore 510476",
    "address_line": "",
    "address": "476 Pasir Ris Drive 6",
    "postal_code": "510476",
    "lat": 1.37504,
    "lng": 103.958,
    "name": "Bomb Shelter",
    "description": "476 Pasir Ris Drive 6, Singapore 510476",
    "id": 185
  },
  {
    "full_address": "477 Pasir Ris Drive 6, Singapore 510477",
    "address_line": "",
    "address": "477 Pasir Ris Drive 6",
    "postal_code": "510477",
    "lat": 1.37445,
    "lng": 103.958,
    "name": "Bomb Shelter",
    "description": "477 Pasir Ris Drive 6, Singapore 510477",
    "id": 186
  },
  {
    "full_address": "482 Pasir Ris Drive 4, Singapore 510482",
    "address_line": "",
    "address": "482 Pasir Ris Drive 4",
    "postal_code": "510482",
    "lat": 1.37383,
    "lng": 103.96,
    "name": "Bomb Shelter",
    "description": "482 Pasir Ris Drive 4, Singapore 510482",
    "id": 187
  },
  {
    "full_address": "483 Pasir Ris Drive 4, Singapore 510483",
    "address_line": "",
    "address": "483 Pasir Ris Drive 4",
    "postal_code": "510483",
    "lat": 1.37411,
    "lng": 103.96,
    "name": "Bomb Shelter",
    "description": "483 Pasir Ris Drive 4, Singapore 510483",
    "id": 188
  },
  {
    "full_address": "560 Pasir Ris Street 51, Singapore 510560",
    "address_line": "",
    "address": "560 Pasir Ris Street 51",
    "postal_code": "510560",
    "lat": 1.36673,
    "lng": 103.95,
    "name": "Bomb Shelter",
    "description": "560 Pasir Ris Street 51, Singapore 510560",
    "id": 189
  },
  {
    "full_address": "561 Pasir Ris Street 51, Singapore 510561",
    "address_line": "",
    "address": "561 Pasir Ris Street 51",
    "postal_code": "510561",
    "lat": 1.36713,
    "lng": 103.951,
    "name": "Bomb Shelter",
    "description": "561 Pasir Ris Street 51, Singapore 510561",
    "id": 190
  },
  {
    "full_address": "Elias Parks Estate, 506 Pasir Ris Street 52, Singapore 510506",
    "address_line": "Elias Parks Estate",
    "address": "506 Pasir Ris Street 52",
    "postal_code": "510506",
    "lat": 1.37697,
    "lng": 103.945,
    "name": "Bomb Shelter",
    "description": "Elias Parks Estate, 506 Pasir Ris Street 52, Singapore 510506",
    "id": 191
  },
  {
    "full_address": "Elias Parks Estate, 515 Pasir Ris Street 52, Singapore 510515",
    "address_line": "Elias Parks Estate",
    "address": "515 Pasir Ris Street 52",
    "postal_code": "510515",
    "lat": 1.3743,
    "lng": 103.943,
    "name": "Bomb Shelter",
    "description": "Elias Parks Estate, 515 Pasir Ris Street 52, Singapore 510515",
    "id": 192
  },
  {
    "full_address": "Elias Parks Estate, 520 Pasir Ris Street 52, Singapore 510520",
    "address_line": "Elias Parks Estate",
    "address": "520 Pasir Ris Street 52",
    "postal_code": "510520",
    "lat": 1.3736,
    "lng": 103.945,
    "name": "Bomb Shelter",
    "description": "Elias Parks Estate, 520 Pasir Ris Street 52, Singapore 510520",
    "id": 193
  },
  {
    "full_address": "570 Pasir Ris Street 53, Singapore 510570",
    "address_line": "",
    "address": "570 Pasir Ris Street 53",
    "postal_code": "510570",
    "lat": 1.37284,
    "lng": 103.946,
    "name": "Bomb Shelter",
    "description": "570 Pasir Ris Street 53, Singapore 510570",
    "id": 194
  },
  {
    "full_address": "571 Pasir Ris Street 53, Singapore 510571",
    "address_line": "",
    "address": "571 Pasir Ris Street 53",
    "postal_code": "510571",
    "lat": 1.37317,
    "lng": 103.946,
    "name": "Bomb Shelter",
    "description": "571 Pasir Ris Street 53, Singapore 510571",
    "id": 195
  },
  {
    "full_address": "585 Pasir Ris Street 53, Singapore 510585",
    "address_line": "",
    "address": "585 Pasir Ris Street 53",
    "postal_code": "510585",
    "lat": 1.37547,
    "lng": 103.947,
    "name": "Bomb Shelter",
    "description": "585 Pasir Ris Street 53, Singapore 510585",
    "id": 196
  },
  {
    "full_address": "612 Elias Road, Singapore 510612",
    "address_line": "",
    "address": "612 Elias Road",
    "postal_code": "510612",
    "lat": 1.37474,
    "lng": 103.942,
    "name": "Bomb Shelter",
    "description": "612 Elias Road, Singapore 510612",
    "id": 197
  },
  {
    "full_address": "614 Elias Road, Singapore 510614",
    "address_line": "",
    "address": "614 Elias Road",
    "postal_code": "510614",
    "lat": 1.37584,
    "lng": 103.942,
    "name": "Bomb Shelter",
    "description": "614 Elias Road, Singapore 510614",
    "id": 198
  },
  {
    "full_address": "615 Elias Road, Singapore 510615",
    "address_line": "",
    "address": "615 Elias Road",
    "postal_code": "510615",
    "lat": 1.37643,
    "lng": 103.942,
    "name": "Bomb Shelter",
    "description": "615 Elias Road, Singapore 510615",
    "id": 199
  },
  {
    "full_address": "626 Pasir Ris Drive 3, Singapore 510626",
    "address_line": "",
    "address": "626 Pasir Ris Drive 3",
    "postal_code": "510626",
    "lat": 1.37983,
    "lng": 103.941,
    "name": "Bomb Shelter",
    "description": "626 Pasir Ris Drive 3, Singapore 510626",
    "id": 200
  },
  {
    "full_address": "631 Pasir Ris Drive 3, Singapore 510631",
    "address_line": "",
    "address": "631 Pasir Ris Drive 3",
    "postal_code": "510631",
    "lat": 1.37892,
    "lng": 103.94,
    "name": "Bomb Shelter",
    "description": "631 Pasir Ris Drive 3, Singapore 510631",
    "id": 201
  },
  {
    "full_address": "634 Pasir Ris Drive 1, Singapore 510634",
    "address_line": "",
    "address": "634 Pasir Ris Drive 1",
    "postal_code": "510634",
    "lat": 1.37761,
    "lng": 103.941,
    "name": "Bomb Shelter",
    "description": "634 Pasir Ris Drive 1, Singapore 510634",
    "id": 202
  },
  {
    "full_address": "639 Pasir Ris Drive 1, Singapore 510639",
    "address_line": "",
    "address": "639 Pasir Ris Drive 1",
    "postal_code": "510639",
    "lat": 1.37669,
    "lng": 103.94,
    "name": "Bomb Shelter",
    "description": "639 Pasir Ris Drive 1, Singapore 510639",
    "id": 203
  },
  {
    "full_address": "644 Pasir Ris Drive 10, Singapore 510644",
    "address_line": "",
    "address": "644 Pasir Ris Drive 10",
    "postal_code": "510644",
    "lat": 1.37818,
    "lng": 103.938,
    "name": "Bomb Shelter",
    "description": "644 Pasir Ris Drive 10, Singapore 510644",
    "id": 204
  },
  {
    "full_address": "706 Pasir Ris Drive 10, Singapore 510706",
    "address_line": "",
    "address": "706 Pasir Ris Drive 10",
    "postal_code": "510706",
    "lat": 1.38102,
    "lng": 103.938,
    "name": "Bomb Shelter",
    "description": "706 Pasir Ris Drive 10, Singapore 510706",
    "id": 205
  },
  {
    "full_address": "716 Pasir Ris Street 72, Singapore 510716",
    "address_line": "",
    "address": "716 Pasir Ris Street 72",
    "postal_code": "510716",
    "lat": 1.38316,
    "lng": 103.937,
    "name": "Bomb Shelter",
    "description": "716 Pasir Ris Street 72, Singapore 510716",
    "id": 206
  },
  {
    "full_address": "720 Pasir Ris Street 72, Singapore 510720",
    "address_line": "",
    "address": "720 Pasir Ris Street 72",
    "postal_code": "510720",
    "lat": 1.38197,
    "lng": 103.936,
    "name": "Bomb Shelter",
    "description": "720 Pasir Ris Street 72, Singapore 510720",
    "id": 207
  },
  {
    "full_address": "739 Pasir Ris Drive 10, Singapore 510739",
    "address_line": "",
    "address": "739 Pasir Ris Drive 10",
    "postal_code": "510739",
    "lat": 1.37868,
    "lng": 103.937,
    "name": "Bomb Shelter",
    "description": "739 Pasir Ris Drive 10, Singapore 510739",
    "id": 208
  },
  {
    "full_address": "741 Pasir Ris Street 71, Singapore 510741",
    "address_line": "",
    "address": "741 Pasir Ris Street 71",
    "postal_code": "510741",
    "lat": 1.37776,
    "lng": 103.936,
    "name": "Bomb Shelter",
    "description": "741 Pasir Ris Street 71, Singapore 510741",
    "id": 209
  },
  {
    "full_address": "750 Pasir Ris Street 71, Singapore 510750",
    "address_line": "",
    "address": "750 Pasir Ris Street 71",
    "postal_code": "510750",
    "lat": 1.37823,
    "lng": 103.935,
    "name": "Bomb Shelter",
    "description": "750 Pasir Ris Street 71, Singapore 510750",
    "id": 210
  },
  {
    "full_address": "753 Pasir Ris Street 71, Singapore 510753",
    "address_line": "",
    "address": "753 Pasir Ris Street 71",
    "postal_code": "510753",
    "lat": 1.37716,
    "lng": 103.934,
    "name": "Bomb Shelter",
    "description": "753 Pasir Ris Street 71, Singapore 510753",
    "id": 211
  },
  {
    "full_address": "760 Pasir Ris Street 71, Singapore 510760",
    "address_line": "",
    "address": "760 Pasir Ris Street 71",
    "postal_code": "510760",
    "lat": 1.37654,
    "lng": 103.934,
    "name": "Bomb Shelter",
    "description": "760 Pasir Ris Street 71, Singapore 510760",
    "id": 212
  },
  {
    "full_address": "766 Pasir Ris Street 71, Singapore 510766",
    "address_line": "",
    "address": "766 Pasir Ris Street 71",
    "postal_code": "510766",
    "lat": 1.37601,
    "lng": 103.936,
    "name": "Bomb Shelter",
    "description": "766 Pasir Ris Street 71, Singapore 510766",
    "id": 213
  },
  {
    "full_address": "775 Pasir Ris Street 71, Singapore 510775",
    "address_line": "",
    "address": "775 Pasir Ris Street 71",
    "postal_code": "510775",
    "lat": 1.37425,
    "lng": 103.937,
    "name": "Bomb Shelter",
    "description": "775 Pasir Ris Street 71, Singapore 510775",
    "id": 214
  },
  {
    "full_address": "776 Pasir Ris Street 71, Singapore 510776",
    "address_line": "",
    "address": "776 Pasir Ris Street 71",
    "postal_code": "510776",
    "lat": 1.37481,
    "lng": 103.937,
    "name": "Bomb Shelter",
    "description": "776 Pasir Ris Street 71, Singapore 510776",
    "id": 215
  },
  {
    "full_address": "Kovan Green, 221 Hougang Street 21, Singapore 530221",
    "address_line": "Kovan Green",
    "address": "221 Hougang Street 21",
    "postal_code": "530221",
    "lat": 1.35687,
    "lng": 103.884,
    "name": "Bomb Shelter",
    "description": "Kovan Green, 221 Hougang Street 21, Singapore 530221",
    "id": 216
  },
  {
    "full_address": "Kovan Green, 221 Hougang Street 21, Singapore 530221",
    "address_line": "Kovan Green",
    "address": "221 Hougang Street 21",
    "postal_code": "530221",
    "lat": 1.35687,
    "lng": 103.884,
    "name": "Bomb Shelter",
    "description": "Kovan Green, 221 Hougang Street 21, Singapore 530221",
    "id": 217
  },
  {
    "full_address": "Kovan Green, 222 Hougang Street 21, Singapore 530222",
    "address_line": "Kovan Green",
    "address": "222 Hougang Street 21",
    "postal_code": "530222",
    "lat": 1.3565,
    "lng": 103.884,
    "name": "Bomb Shelter",
    "description": "Kovan Green, 222 Hougang Street 21, Singapore 530222",
    "id": 218
  },
  {
    "full_address": "925 Hougang Street 91, Singapore 530925",
    "address_line": "",
    "address": "925 Hougang Street 91",
    "postal_code": "530925",
    "lat": 1.37668,
    "lng": 103.883,
    "name": "Bomb Shelter",
    "description": "925 Hougang Street 91, Singapore 530925",
    "id": 219
  },
  {
    "full_address": "927 Hougang Street 91, Singapore 530927",
    "address_line": "",
    "address": "927 Hougang Street 91",
    "postal_code": "530927",
    "lat": 1.3766,
    "lng": 103.881,
    "name": "Bomb Shelter",
    "description": "927 Hougang Street 91, Singapore 530927",
    "id": 220
  },
  {
    "full_address": "422 Hougang Avenue 6, Singapore 530422",
    "address_line": "",
    "address": "422 Hougang Avenue 6",
    "postal_code": "530422",
    "lat": 1.37461,
    "lng": 103.894,
    "name": "Bomb Shelter",
    "description": "422 Hougang Avenue 6, Singapore 530422",
    "id": 221
  },
  {
    "full_address": "423 Hougang Avenue 6, Singapore 530423",
    "address_line": "",
    "address": "423 Hougang Avenue 6",
    "postal_code": "530423",
    "lat": 1.3742,
    "lng": 103.894,
    "name": "Bomb Shelter",
    "description": "423 Hougang Avenue 6, Singapore 530423",
    "id": 222
  },
  {
    "full_address": "424 Hougang Avenue 6, Singapore 530424",
    "address_line": "",
    "address": "424 Hougang Avenue 6",
    "postal_code": "530424",
    "lat": 1.37392,
    "lng": 103.894,
    "name": "Bomb Shelter",
    "description": "424 Hougang Avenue 6, Singapore 530424",
    "id": 223
  },
  {
    "full_address": "424 Hougang Avenue 6, Singapore 530424",
    "address_line": "",
    "address": "424 Hougang Avenue 6",
    "postal_code": "530424",
    "lat": 1.37392,
    "lng": 103.894,
    "name": "Bomb Shelter",
    "description": "424 Hougang Avenue 6, Singapore 530424",
    "id": 224
  },
  {
    "full_address": "424 Hougang Avenue 6, Singapore 530424",
    "address_line": "",
    "address": "424 Hougang Avenue 6",
    "postal_code": "530424",
    "lat": 1.37392,
    "lng": 103.894,
    "name": "Bomb Shelter",
    "description": "424 Hougang Avenue 6, Singapore 530424",
    "id": 225
  },
  {
    "full_address": "428 Hougang Avenue 6, Singapore 530428",
    "address_line": "",
    "address": "428 Hougang Avenue 6",
    "postal_code": "530428",
    "lat": 1.37486,
    "lng": 103.893,
    "name": "Bomb Shelter",
    "description": "428 Hougang Avenue 6, Singapore 530428",
    "id": 226
  },
  {
    "full_address": "468 Hougang Avenue 8, Singapore 530468",
    "address_line": "",
    "address": "468 Hougang Avenue 8",
    "postal_code": "530468",
    "lat": 1.37379,
    "lng": 103.897,
    "name": "Bomb Shelter",
    "description": "468 Hougang Avenue 8, Singapore 530468",
    "id": 227
  },
  {
    "full_address": "Tampines Sunrise, 702 Tampines Street 71, Singapore 520702",
    "address_line": "Tampines Sunrise",
    "address": "702 Tampines Street 71",
    "postal_code": "520702",
    "lat": 1.35626,
    "lng": 103.938,
    "name": "Bomb Shelter",
    "description": "Tampines Sunrise, 702 Tampines Street 71, Singapore 520702",
    "id": 228
  },
  {
    "full_address": "Tampines Sunrise, 703 Tampines Street 71, Singapore 520703",
    "address_line": "Tampines Sunrise",
    "address": "703 Tampines Street 71",
    "postal_code": "520703",
    "lat": 1.35678,
    "lng": 103.938,
    "name": "Bomb Shelter",
    "description": "Tampines Sunrise, 703 Tampines Street 71, Singapore 520703",
    "id": 229
  },
  {
    "full_address": "Tampines Starlight, 708 Tampines Street 71, Singapore 520708",
    "address_line": "Tampines Starlight",
    "address": "708 Tampines Street 71",
    "postal_code": "520708",
    "lat": 1.35808,
    "lng": 103.937,
    "name": "Bomb Shelter",
    "description": "Tampines Starlight, 708 Tampines Street 71, Singapore 520708",
    "id": 230
  },
  {
    "full_address": "Tampines Starlight, 710 Tampines Street 71, Singapore 520710",
    "address_line": "Tampines Starlight",
    "address": "710 Tampines Street 71",
    "postal_code": "520710",
    "lat": 1.35865,
    "lng": 103.938,
    "name": "Bomb Shelter",
    "description": "Tampines Starlight, 710 Tampines Street 71, Singapore 520710",
    "id": 231
  },
  {
    "full_address": "Tampines Starlight, 717 Tampines Street 72, Singapore 520717",
    "address_line": "Tampines Starlight",
    "address": "717 Tampines Street 72",
    "postal_code": "520717",
    "lat": 1.35899,
    "lng": 103.935,
    "name": "Bomb Shelter",
    "description": "Tampines Starlight, 717 Tampines Street 72, Singapore 520717",
    "id": 232
  },
  {
    "full_address": "Tampines Starlight, 719 Tampines Street 72, Singapore 520719",
    "address_line": "Tampines Starlight",
    "address": "719 Tampines Street 72",
    "postal_code": "520719",
    "lat": 1.35894,
    "lng": 103.936,
    "name": "Bomb Shelter",
    "description": "Tampines Starlight, 719 Tampines Street 72, Singapore 520719",
    "id": 233
  },
  {
    "full_address": "Tampines Courtview, 730 Tampines Street 71, Singapore 520730",
    "address_line": "Tampines Courtview",
    "address": "730 Tampines Street 71",
    "postal_code": "520730",
    "lat": 1.35675,
    "lng": 103.933,
    "name": "Bomb Shelter",
    "description": "Tampines Courtview, 730 Tampines Street 71, Singapore 520730",
    "id": 234
  },
  {
    "full_address": "Tampines Green Vale, 735 Tampines Street 72, Singapore 520735",
    "address_line": "Tampines Green Vale",
    "address": "735 Tampines Street 72",
    "postal_code": "520735",
    "lat": 1.35952,
    "lng": 103.934,
    "name": "Bomb Shelter",
    "description": "Tampines Green Vale, 735 Tampines Street 72, Singapore 520735",
    "id": 235
  },
  {
    "full_address": "Tampines Green Vale, 741 Tampines Street 72, Singapore 520741",
    "address_line": "Tampines Green Vale",
    "address": "741 Tampines Street 72",
    "postal_code": "520741",
    "lat": 1.35996,
    "lng": 103.933,
    "name": "Bomb Shelter",
    "description": "Tampines Green Vale, 741 Tampines Street 72, Singapore 520741",
    "id": 236
  },
  {
    "full_address": "Tampines Arcadia, 842C Tampines Street 82, Singapore 523842",
    "address_line": "Tampines Arcadia",
    "address": "842C Tampines Street 82",
    "postal_code": "523842",
    "lat": 1.35106,
    "lng": 103.937,
    "name": "Bomb Shelter",
    "description": "Tampines Arcadia, 842C Tampines Street 82, Singapore 523842",
    "id": 237
  },
  {
    "full_address": "842A Tampines Street 82, Singapore 521842",
    "address_line": "",
    "address": "842A Tampines Street 82",
    "postal_code": "521842",
    "lat": 1.3513,
    "lng": 103.938,
    "name": "Bomb Shelter",
    "description": "842A Tampines Street 82, Singapore 521842",
    "id": 238
  },
  {
    "full_address": "Tampines Arcadia, 856E Tampines Street 82, Singapore 525856",
    "address_line": "Tampines Arcadia",
    "address": "856E Tampines Street 82",
    "postal_code": "525856",
    "lat": 1.35293,
    "lng": 103.939,
    "name": "Bomb Shelter",
    "description": "Tampines Arcadia, 856E Tampines Street 82, Singapore 525856",
    "id": 239
  },
  {
    "full_address": "230B Tampines Street 24, Singapore 525230",
    "address_line": "",
    "address": "230B Tampines Street 24",
    "postal_code": "525230",
    "lat": 1.35558,
    "lng": 103.951,
    "name": "Bomb Shelter",
    "description": "230B Tampines Street 24, Singapore 525230",
    "id": 240
  },
  {
    "full_address": "354 Tampines Street 33, Singapore 520354",
    "address_line": "",
    "address": "354 Tampines Street 33",
    "postal_code": "520354",
    "lat": 1.35485,
    "lng": 103.962,
    "name": "Bomb Shelter",
    "description": "354 Tampines Street 33, Singapore 520354",
    "id": 241
  },
  {
    "full_address": "357 Tampines Street 33, Singapore 520357",
    "address_line": "",
    "address": "357 Tampines Street 33",
    "postal_code": "520357",
    "lat": 1.35417,
    "lng": 103.962,
    "name": "Bomb Shelter",
    "description": "357 Tampines Street 33, Singapore 520357",
    "id": 242
  },
  {
    "full_address": "361 Tampines Street 34, Singapore 520361",
    "address_line": "",
    "address": "361 Tampines Street 34",
    "postal_code": "520361",
    "lat": 1.35587,
    "lng": 103.963,
    "name": "Bomb Shelter",
    "description": "361 Tampines Street 34, Singapore 520361",
    "id": 243
  },
  {
    "full_address": "364 Tampines Street 34, Singapore 520364",
    "address_line": "",
    "address": "364 Tampines Street 34",
    "postal_code": "520364",
    "lat": 1.35719,
    "lng": 103.96,
    "name": "Bomb Shelter",
    "description": "364 Tampines Street 34, Singapore 520364",
    "id": 244
  },
  {
    "full_address": "367 Tampines Street 34, Singapore 520367",
    "address_line": "",
    "address": "367 Tampines Street 34",
    "postal_code": "520367",
    "lat": 1.35874,
    "lng": 103.961,
    "name": "Bomb Shelter",
    "description": "367 Tampines Street 34, Singapore 520367",
    "id": 245
  },
  {
    "full_address": "374 Tampines Street 34, Singapore 520374",
    "address_line": "",
    "address": "374 Tampines Street 34",
    "postal_code": "520374",
    "lat": 1.3566,
    "lng": 103.959,
    "name": "Bomb Shelter",
    "description": "374 Tampines Street 34, Singapore 520374",
    "id": 246
  },
  {
    "full_address": "387 Tampines Street 32, Singapore 520387",
    "address_line": "",
    "address": "387 Tampines Street 32",
    "postal_code": "520387",
    "lat": 1.3553,
    "lng": 103.959,
    "name": "Bomb Shelter",
    "description": "387 Tampines Street 32, Singapore 520387",
    "id": 247
  },
  {
    "full_address": "393 Tampines Avenue 7, Singapore 520393",
    "address_line": "",
    "address": "393 Tampines Avenue 7",
    "postal_code": "520393",
    "lat": 1.35503,
    "lng": 103.957,
    "name": "Bomb Shelter",
    "description": "393 Tampines Avenue 7, Singapore 520393",
    "id": 248
  },
  {
    "full_address": "450A Tampines Street 42, Singapore 521450",
    "address_line": "",
    "address": "450A Tampines Street 42",
    "postal_code": "521450",
    "lat": 1.35828,
    "lng": 103.952,
    "name": "Bomb Shelter",
    "description": "450A Tampines Street 42, Singapore 521450",
    "id": 249
  },
  {
    "full_address": "450G Tampines Street 42, Singapore 527450",
    "address_line": "",
    "address": "450G Tampines Street 42",
    "postal_code": "527450",
    "lat": 1.35828,
    "lng": 103.953,
    "name": "Bomb Shelter",
    "description": "450G Tampines Street 42, Singapore 527450",
    "id": 250
  },
  {
    "full_address": "487A Tampines Avenue 9, Singapore 520487",
    "address_line": "",
    "address": "487A Tampines Avenue 9",
    "postal_code": "520487",
    "lat": 1.35967,
    "lng": 103.958,
    "name": "Bomb Shelter",
    "description": "487A Tampines Avenue 9, Singapore 520487",
    "id": 251
  },
  {
    "full_address": "487B Tampines Street 45, Singapore 521487",
    "address_line": "",
    "address": "487B Tampines Street 45",
    "postal_code": "521487",
    "lat": 1.36034,
    "lng": 103.958,
    "name": "Bomb Shelter",
    "description": "487B Tampines Street 45, Singapore 521487",
    "id": 252
  },
  {
    "full_address": "487C Tampines Street 45, Singapore 522487",
    "address_line": "",
    "address": "487C Tampines Street 45",
    "postal_code": "522487",
    "lat": 1.36074,
    "lng": 103.958,
    "name": "Bomb Shelter",
    "description": "487C Tampines Street 45, Singapore 522487",
    "id": 253
  },
  {
    "full_address": "488B Tampines Street 45, Singapore 521488",
    "address_line": "",
    "address": "488B Tampines Street 45",
    "postal_code": "521488",
    "lat": 1.36026,
    "lng": 103.957,
    "name": "Bomb Shelter",
    "description": "488B Tampines Street 45, Singapore 521488",
    "id": 254
  },
  {
    "full_address": "491D Tampines Street 45, Singapore 523491",
    "address_line": "",
    "address": "491D Tampines Street 45",
    "postal_code": "523491",
    "lat": 1.36257,
    "lng": 103.955,
    "name": "Bomb Shelter",
    "description": "491D Tampines Street 45, Singapore 523491",
    "id": 255
  },
  {
    "full_address": "492B Tampines Avenue 9, Singapore 520492",
    "address_line": "",
    "address": "492B Tampines Avenue 9",
    "postal_code": "520492",
    "lat": 1.36326,
    "lng": 103.954,
    "name": "Bomb Shelter",
    "description": "492B Tampines Avenue 9, Singapore 520492",
    "id": 256
  },
  {
    "full_address": "493A Tampines Avenue 9, Singapore 520493",
    "address_line": "",
    "address": "493A Tampines Avenue 9",
    "postal_code": "520493",
    "lat": 1.36263,
    "lng": 103.952,
    "name": "Bomb Shelter",
    "description": "493A Tampines Avenue 9, Singapore 520493",
    "id": 257
  },
  {
    "full_address": "494B Tampines Avenue 9, Singapore 520494",
    "address_line": "",
    "address": "494B Tampines Avenue 9",
    "postal_code": "520494",
    "lat": 1.36325,
    "lng": 103.953,
    "name": "Bomb Shelter",
    "description": "494B Tampines Avenue 9, Singapore 520494",
    "id": 258
  },
  {
    "full_address": "496D Tampines Avenue 9, Singapore 520496",
    "address_line": "",
    "address": "496D Tampines Avenue 9",
    "postal_code": "520496",
    "lat": 1.36163,
    "lng": 103.95,
    "name": "Bomb Shelter",
    "description": "496D Tampines Avenue 9, Singapore 520496",
    "id": 259
  },
  {
    "full_address": "497C Tampines Street 45, Singapore 522497",
    "address_line": "",
    "address": "497C Tampines Street 45",
    "postal_code": "522497",
    "lat": 1.35809,
    "lng": 103.958,
    "name": "Bomb Shelter",
    "description": "497C Tampines Street 45, Singapore 522497",
    "id": 260
  },
  {
    "full_address": "497H Tampines Street 45, Singapore 526497",
    "address_line": "",
    "address": "497H Tampines Street 45",
    "postal_code": "526497",
    "lat": 1.35984,
    "lng": 103.96,
    "name": "Bomb Shelter",
    "description": "497H Tampines Street 45, Singapore 526497",
    "id": 261
  },
  {
    "full_address": "498A Tampines Street 45, Singapore 520498",
    "address_line": "",
    "address": "498A Tampines Street 45",
    "postal_code": "520498",
    "lat": 1.36162,
    "lng": 103.958,
    "name": "Bomb Shelter",
    "description": "498A Tampines Street 45, Singapore 520498",
    "id": 262
  },
  {
    "full_address": "498M Tampines Street 45, Singapore 529498",
    "address_line": "",
    "address": "498M Tampines Street 45",
    "postal_code": "529498",
    "lat": 1.36205,
    "lng": 103.958,
    "name": "Bomb Shelter",
    "description": "498M Tampines Street 45, Singapore 529498",
    "id": 263
  },
  {
    "full_address": "891 Tampines Avenue 8, Singapore 520891",
    "address_line": "",
    "address": "891 Tampines Avenue 8",
    "postal_code": "520891",
    "lat": 1.34924,
    "lng": 103.931,
    "name": "Bomb Shelter",
    "description": "891 Tampines Avenue 8, Singapore 520891",
    "id": 264
  },
  {
    "full_address": "159 Hougang Street 11, Singapore 530159",
    "address_line": "",
    "address": "159 Hougang Street 11",
    "postal_code": "530159",
    "lat": 1.35149,
    "lng": 103.879,
    "name": "Bomb Shelter",
    "description": "159 Hougang Street 11, Singapore 530159",
    "id": 265
  },
  {
    "full_address": "165 Hougang Avenue 1, Singapore 530165",
    "address_line": "",
    "address": "165 Hougang Avenue 1",
    "postal_code": "530165",
    "lat": 1.35048,
    "lng": 103.888,
    "name": "Bomb Shelter",
    "description": "165 Hougang Avenue 1, Singapore 530165",
    "id": 266
  },
  {
    "full_address": "836 Hougang Central, Singapore 530836",
    "address_line": "",
    "address": "836 Hougang Central",
    "postal_code": "530836",
    "lat": 1.36998,
    "lng": 103.891,
    "name": "Bomb Shelter",
    "description": "836 Hougang Central, Singapore 530836",
    "id": 267
  },
  {
    "full_address": "837 Hougang Central, Singapore 530837",
    "address_line": "",
    "address": "837 Hougang Central",
    "postal_code": "530837",
    "lat": 1.3695,
    "lng": 103.892,
    "name": "Bomb Shelter",
    "description": "837 Hougang Central, Singapore 530837",
    "id": 268
  },
  {
    "full_address": "509 Serangoon North Avenue 4, Singapore 550509",
    "address_line": "",
    "address": "509 Serangoon North Avenue 4",
    "postal_code": "550509",
    "lat": 1.37187,
    "lng": 103.876,
    "name": "Bomb Shelter",
    "description": "509 Serangoon North Avenue 4, Singapore 550509",
    "id": 269
  },
  {
    "full_address": "512 Serangoon North Avenue 4, Singapore 550512",
    "address_line": "",
    "address": "512 Serangoon North Avenue 4",
    "postal_code": "550512",
    "lat": 1.37166,
    "lng": 103.875,
    "name": "Bomb Shelter",
    "description": "512 Serangoon North Avenue 4, Singapore 550512",
    "id": 270
  },
  {
    "full_address": "517 Serangoon North Avenue 4, Singapore 550517",
    "address_line": "",
    "address": "517 Serangoon North Avenue 4",
    "postal_code": "550517",
    "lat": 1.37139,
    "lng": 103.874,
    "name": "Bomb Shelter",
    "description": "517 Serangoon North Avenue 4, Singapore 550517",
    "id": 271
  },
  {
    "full_address": "518 Serangoon North Avenue 4, Singapore 550518",
    "address_line": "",
    "address": "518 Serangoon North Avenue 4",
    "postal_code": "550518",
    "lat": 1.37171,
    "lng": 103.874,
    "name": "Bomb Shelter",
    "description": "518 Serangoon North Avenue 4, Singapore 550518",
    "id": 272
  },
  {
    "full_address": "523 Serangoon North Avenue 4, Singapore 550523",
    "address_line": "",
    "address": "523 Serangoon North Avenue 4",
    "postal_code": "550523",
    "lat": 1.37308,
    "lng": 103.873,
    "name": "Bomb Shelter",
    "description": "523 Serangoon North Avenue 4, Singapore 550523",
    "id": 273
  },
  {
    "full_address": "523 Serangoon North Avenue 4, Singapore 550523",
    "address_line": "",
    "address": "523 Serangoon North Avenue 4",
    "postal_code": "550523",
    "lat": 1.37308,
    "lng": 103.873,
    "name": "Bomb Shelter",
    "description": "523 Serangoon North Avenue 4, Singapore 550523",
    "id": 274
  },
  {
    "full_address": "Springfield Secondary School, 30 Tampines Avenue 8, Singapore 529593",
    "address_line": "Springfield Secondary School",
    "address": "30 Tampines Avenue 8",
    "postal_code": "529593",
    "lat": 1.3497,
    "lng": 103.93,
    "name": "Bomb Shelter",
    "description": "Springfield Secondary School, 30 Tampines Avenue 8, Singapore 529593",
    "id": 275
  },
  {
    "full_address": "533 Serangoon North Avenue 4, Singapore 550533",
    "address_line": "",
    "address": "533 Serangoon North Avenue 4",
    "postal_code": "550533",
    "lat": 1.3746,
    "lng": 103.875,
    "name": "Bomb Shelter",
    "description": "533 Serangoon North Avenue 4, Singapore 550533",
    "id": 276
  },
  {
    "full_address": "534 Serangoon North Avenue 4, Singapore 550534",
    "address_line": "",
    "address": "534 Serangoon North Avenue 4",
    "postal_code": "550534",
    "lat": 1.37429,
    "lng": 103.875,
    "name": "Bomb Shelter",
    "description": "534 Serangoon North Avenue 4, Singapore 550534",
    "id": 277
  },
  {
    "full_address": "540 Serangoon North Avenue 4, Singapore 550540",
    "address_line": "",
    "address": "540 Serangoon North Avenue 4",
    "postal_code": "550540",
    "lat": 1.37469,
    "lng": 103.873,
    "name": "Bomb Shelter",
    "description": "540 Serangoon North Avenue 4, Singapore 550540",
    "id": 278
  },
  {
    "full_address": "541 Serangoon North Avenue 4, Singapore 550541",
    "address_line": "",
    "address": "541 Serangoon North Avenue 4",
    "postal_code": "550541",
    "lat": 1.37437,
    "lng": 103.873,
    "name": "Bomb Shelter",
    "description": "541 Serangoon North Avenue 4, Singapore 550541",
    "id": 279
  },
  {
    "full_address": "546 Serangoon North Avenue 3, Singapore 550546",
    "address_line": "",
    "address": "546 Serangoon North Avenue 3",
    "postal_code": "550546",
    "lat": 1.37489,
    "lng": 103.87,
    "name": "Bomb Shelter",
    "description": "546 Serangoon North Avenue 3, Singapore 550546",
    "id": 280
  },
  {
    "full_address": "548 Serangoon North Avenue 3, Singapore 550548",
    "address_line": "",
    "address": "548 Serangoon North Avenue 3",
    "postal_code": "550548",
    "lat": 1.37299,
    "lng": 103.871,
    "name": "Bomb Shelter",
    "description": "548 Serangoon North Avenue 3, Singapore 550548",
    "id": 281
  },
  {
    "full_address": "554 Serangoon North Avenue 3, Singapore 550554",
    "address_line": "",
    "address": "554 Serangoon North Avenue 3",
    "postal_code": "550554",
    "lat": 1.37188,
    "lng": 103.87,
    "name": "Bomb Shelter",
    "description": "554 Serangoon North Avenue 3, Singapore 550554",
    "id": 282
  },
  {
    "full_address": "911 Hougang Street 91, Singapore 530911",
    "address_line": "",
    "address": "911 Hougang Street 91",
    "postal_code": "530911",
    "lat": 1.37895,
    "lng": 103.884,
    "name": "Bomb Shelter",
    "description": "911 Hougang Street 91, Singapore 530911",
    "id": 283
  },
  {
    "full_address": "915 Hougang Street 91, Singapore 530915",
    "address_line": "",
    "address": "915 Hougang Street 91",
    "postal_code": "530915",
    "lat": 1.37761,
    "lng": 103.884,
    "name": "Bomb Shelter",
    "description": "915 Hougang Street 91, Singapore 530915",
    "id": 284
  },
  {
    "full_address": "916 Hougang Avenue 9, Singapore 530916",
    "address_line": "",
    "address": "916 Hougang Avenue 9",
    "postal_code": "530916",
    "lat": 1.37489,
    "lng": 103.884,
    "name": "Bomb Shelter",
    "description": "916 Hougang Avenue 9, Singapore 530916",
    "id": 285
  },
  {
    "full_address": "919 Hougang Avenue 4, Singapore 530919",
    "address_line": "",
    "address": "919 Hougang Avenue 4",
    "postal_code": "530919",
    "lat": 1.37598,
    "lng": 103.884,
    "name": "Bomb Shelter",
    "description": "919 Hougang Avenue 4, Singapore 530919",
    "id": 286
  },
  {
    "full_address": "Yishun Rivergreen, 310 Yishun Ring Road, Singapore 760310",
    "address_line": "Yishun Rivergreen",
    "address": "310 Yishun Ring Road",
    "postal_code": "760310",
    "lat": 1.4322,
    "lng": 103.841,
    "name": "Bomb Shelter",
    "description": "Yishun Rivergreen, 310 Yishun Ring Road, Singapore 760310",
    "id": 287
  },
  {
    "full_address": "617 Ang Mo Kio Avenue 4, Singapore 560617",
    "address_line": "",
    "address": "617 Ang Mo Kio Avenue 4",
    "postal_code": "560617",
    "lat": 1.3777,
    "lng": 103.838,
    "name": "Bomb Shelter",
    "description": "617 Ang Mo Kio Avenue 4, Singapore 560617",
    "id": 288
  },
  {
    "full_address": "619 Ang Mo Kio Avenue 4, Singapore 560619",
    "address_line": "",
    "address": "619 Ang Mo Kio Avenue 4",
    "postal_code": "560619",
    "lat": 1.3786,
    "lng": 103.839,
    "name": "Bomb Shelter",
    "description": "619 Ang Mo Kio Avenue 4, Singapore 560619",
    "id": 289
  },
  {
    "full_address": "435 Hougang Avenue 8, Singapore 530435",
    "address_line": "",
    "address": "435 Hougang Avenue 8",
    "postal_code": "530435",
    "lat": 1.37734,
    "lng": 103.893,
    "name": "Bomb Shelter",
    "description": "435 Hougang Avenue 8, Singapore 530435",
    "id": 290
  },
  {
    "full_address": "436 Hougang Avenue 8, Singapore 530436",
    "address_line": "",
    "address": "436 Hougang Avenue 8",
    "postal_code": "530436",
    "lat": 1.37731,
    "lng": 103.894,
    "name": "Bomb Shelter",
    "description": "436 Hougang Avenue 8, Singapore 530436",
    "id": 291
  },
  {
    "full_address": "437 Hougang Avenue 8, Singapore 530437",
    "address_line": "",
    "address": "437 Hougang Avenue 8",
    "postal_code": "530437",
    "lat": 1.37744,
    "lng": 103.893,
    "name": "Bomb Shelter",
    "description": "437 Hougang Avenue 8, Singapore 530437",
    "id": 292
  },
  {
    "full_address": "439 Hougang Avenue 8, Singapore 530439",
    "address_line": "",
    "address": "439 Hougang Avenue 8",
    "postal_code": "530439",
    "lat": 1.37873,
    "lng": 103.893,
    "name": "Bomb Shelter",
    "description": "439 Hougang Avenue 8, Singapore 530439",
    "id": 293
  },
  {
    "full_address": "440 Hougang Avenue 8, Singapore 530440",
    "address_line": "",
    "address": "440 Hougang Avenue 8",
    "postal_code": "530440",
    "lat": 1.37911,
    "lng": 103.894,
    "name": "Bomb Shelter",
    "description": "440 Hougang Avenue 8, Singapore 530440",
    "id": 294
  },
  {
    "full_address": "444 Hougang Avenue 8, Singapore 530444",
    "address_line": "",
    "address": "444 Hougang Avenue 8",
    "postal_code": "530444",
    "lat": 1.37956,
    "lng": 103.894,
    "name": "Bomb Shelter",
    "description": "444 Hougang Avenue 8, Singapore 530444",
    "id": 295
  },
  {
    "full_address": "444 Hougang Avenue 8, Singapore 530444",
    "address_line": "",
    "address": "444 Hougang Avenue 8",
    "postal_code": "530444",
    "lat": 1.37956,
    "lng": 103.894,
    "name": "Bomb Shelter",
    "description": "444 Hougang Avenue 8, Singapore 530444",
    "id": 296
  },
  {
    "full_address": "445 Hougang Avenue 8, Singapore 530445",
    "address_line": "",
    "address": "445 Hougang Avenue 8",
    "postal_code": "530445",
    "lat": 1.37918,
    "lng": 103.894,
    "name": "Bomb Shelter",
    "description": "445 Hougang Avenue 8, Singapore 530445",
    "id": 297
  },
  {
    "full_address": "446 Hougang Avenue 8, Singapore 530446",
    "address_line": "",
    "address": "446 Hougang Avenue 8",
    "postal_code": "530446",
    "lat": 1.3789,
    "lng": 103.894,
    "name": "Bomb Shelter",
    "description": "446 Hougang Avenue 8, Singapore 530446",
    "id": 298
  },
  {
    "full_address": "447 Hougang Avenue 10, Singapore 530447",
    "address_line": "",
    "address": "447 Hougang Avenue 10",
    "postal_code": "530447",
    "lat": 1.37945,
    "lng": 103.895,
    "name": "Bomb Shelter",
    "description": "447 Hougang Avenue 10, Singapore 530447",
    "id": 299
  },
  {
    "full_address": "448 Hougang Avenue 10, Singapore 530448",
    "address_line": "",
    "address": "448 Hougang Avenue 10",
    "postal_code": "530448",
    "lat": 1.37919,
    "lng": 103.895,
    "name": "Bomb Shelter",
    "description": "448 Hougang Avenue 10, Singapore 530448",
    "id": 300
  },
  {
    "full_address": "449 Hougang Avenue 10, Singapore 530449",
    "address_line": "",
    "address": "449 Hougang Avenue 10",
    "postal_code": "530449",
    "lat": 1.37888,
    "lng": 103.895,
    "name": "Bomb Shelter",
    "description": "449 Hougang Avenue 10, Singapore 530449",
    "id": 301
  },
  {
    "full_address": "450 Hougang Avenue 10, Singapore 530450",
    "address_line": "",
    "address": "450 Hougang Avenue 10",
    "postal_code": "530450",
    "lat": 1.37921,
    "lng": 103.896,
    "name": "Bomb Shelter",
    "description": "450 Hougang Avenue 10, Singapore 530450",
    "id": 302
  },
  {
    "full_address": "451 Hougang Avenue 10, Singapore 530451",
    "address_line": "",
    "address": "451 Hougang Avenue 10",
    "postal_code": "530451",
    "lat": 1.37891,
    "lng": 103.896,
    "name": "Bomb Shelter",
    "description": "451 Hougang Avenue 10, Singapore 530451",
    "id": 303
  },
  {
    "full_address": "452 Hougang Avenue 10, Singapore 530452",
    "address_line": "",
    "address": "452 Hougang Avenue 10",
    "postal_code": "530452",
    "lat": 1.37886,
    "lng": 103.896,
    "name": "Bomb Shelter",
    "description": "452 Hougang Avenue 10, Singapore 530452",
    "id": 304
  },
  {
    "full_address": "453 Hougang Avenue 10, Singapore 530453",
    "address_line": "",
    "address": "453 Hougang Avenue 10",
    "postal_code": "530453",
    "lat": 1.37858,
    "lng": 103.896,
    "name": "Bomb Shelter",
    "description": "453 Hougang Avenue 10, Singapore 530453",
    "id": 305
  },
  {
    "full_address": "534 Hougang Street 52, Singapore 530534",
    "address_line": "",
    "address": "534 Hougang Street 52",
    "postal_code": "530534",
    "lat": 1.37697,
    "lng": 103.891,
    "name": "Bomb Shelter",
    "description": "534 Hougang Street 52, Singapore 530534",
    "id": 306
  },
  {
    "full_address": "535 Hougang Street 52, Singapore 530535",
    "address_line": "",
    "address": "535 Hougang Street 52",
    "postal_code": "530535",
    "lat": 1.37664,
    "lng": 103.89,
    "name": "Bomb Shelter",
    "description": "535 Hougang Street 52, Singapore 530535",
    "id": 307
  },
  {
    "full_address": "536 Hougang Street 52, Singapore 530536",
    "address_line": "",
    "address": "536 Hougang Street 52",
    "postal_code": "530536",
    "lat": 1.37736,
    "lng": 103.889,
    "name": "Bomb Shelter",
    "description": "536 Hougang Street 52, Singapore 530536",
    "id": 308
  },
  {
    "full_address": "537 Hougang Street 52, Singapore 530537",
    "address_line": "",
    "address": "537 Hougang Street 52",
    "postal_code": "530537",
    "lat": 1.37784,
    "lng": 103.89,
    "name": "Bomb Shelter",
    "description": "537 Hougang Street 52, Singapore 530537",
    "id": 309
  },
  {
    "full_address": "538 Hougang Street 52, Singapore 530538",
    "address_line": "",
    "address": "538 Hougang Street 52",
    "postal_code": "530538",
    "lat": 1.37783,
    "lng": 103.89,
    "name": "Bomb Shelter",
    "description": "538 Hougang Street 52, Singapore 530538",
    "id": 310
  },
  {
    "full_address": "539 Hougang Street 52, Singapore 530539",
    "address_line": "",
    "address": "539 Hougang Street 52",
    "postal_code": "530539",
    "lat": 1.37756,
    "lng": 103.89,
    "name": "Bomb Shelter",
    "description": "539 Hougang Street 52, Singapore 530539",
    "id": 311
  },
  {
    "full_address": "540 Hougang Avenue 8, Singapore 530540",
    "address_line": "",
    "address": "540 Hougang Avenue 8",
    "postal_code": "530540",
    "lat": 1.37788,
    "lng": 103.891,
    "name": "Bomb Shelter",
    "description": "540 Hougang Avenue 8, Singapore 530540",
    "id": 312
  },
  {
    "full_address": "541 Hougang Avenue 8, Singapore 530541",
    "address_line": "",
    "address": "541 Hougang Avenue 8",
    "postal_code": "530541",
    "lat": 1.37753,
    "lng": 103.891,
    "name": "Bomb Shelter",
    "description": "541 Hougang Avenue 8, Singapore 530541",
    "id": 313
  },
  {
    "full_address": "552 Hougang Street 51, Singapore 530552",
    "address_line": "",
    "address": "552 Hougang Street 51",
    "postal_code": "530552",
    "lat": 1.37887,
    "lng": 103.89,
    "name": "Bomb Shelter",
    "description": "552 Hougang Street 51, Singapore 530552",
    "id": 314
  },
  {
    "full_address": "553 Hougang Street 51, Singapore 530553",
    "address_line": "",
    "address": "553 Hougang Street 51",
    "postal_code": "530553",
    "lat": 1.3792,
    "lng": 103.89,
    "name": "Bomb Shelter",
    "description": "553 Hougang Street 51, Singapore 530553",
    "id": 315
  },
  {
    "full_address": "570 Hougang Street 51, Singapore 530570",
    "address_line": "",
    "address": "570 Hougang Street 51",
    "postal_code": "530570",
    "lat": 1.37802,
    "lng": 103.888,
    "name": "Bomb Shelter",
    "description": "570 Hougang Street 51, Singapore 530570",
    "id": 316
  },
  {
    "full_address": "573 Hougang Street 51, Singapore 530573",
    "address_line": "",
    "address": "573 Hougang Street 51",
    "postal_code": "530573",
    "lat": 1.37767,
    "lng": 103.888,
    "name": "Bomb Shelter",
    "description": "573 Hougang Street 51, Singapore 530573",
    "id": 317
  },
  {
    "full_address": "580 Hougang Avenue 4, Singapore 530580",
    "address_line": "",
    "address": "580 Hougang Avenue 4",
    "postal_code": "530580",
    "lat": 1.37891,
    "lng": 103.887,
    "name": "Bomb Shelter",
    "description": "580 Hougang Avenue 4, Singapore 530580",
    "id": 318
  },
  {
    "full_address": "702 Woodlands Drive 40, Singapore 730702",
    "address_line": "",
    "address": "702 Woodlands Drive 40",
    "postal_code": "730702",
    "lat": 1.44175,
    "lng": 103.797,
    "name": "Bomb Shelter",
    "description": "702 Woodlands Drive 40, Singapore 730702",
    "id": 319
  },
  {
    "full_address": "710 Woodlands Drive 70, Singapore 730710",
    "address_line": "",
    "address": "710 Woodlands Drive 70",
    "postal_code": "730710",
    "lat": 1.44075,
    "lng": 103.798,
    "name": "Bomb Shelter",
    "description": "710 Woodlands Drive 70, Singapore 730710",
    "id": 320
  },
  {
    "full_address": "711 Woodlands Drive 70, Singapore 730711",
    "address_line": "",
    "address": "711 Woodlands Drive 70",
    "postal_code": "730711",
    "lat": 1.44135,
    "lng": 103.797,
    "name": "Bomb Shelter",
    "description": "711 Woodlands Drive 70, Singapore 730711",
    "id": 321
  },
  {
    "full_address": "717 Woodlands Drive 70, Singapore 730717",
    "address_line": "",
    "address": "717 Woodlands Drive 70",
    "postal_code": "730717",
    "lat": 1.44104,
    "lng": 103.8,
    "name": "Bomb Shelter",
    "description": "717 Woodlands Drive 70, Singapore 730717",
    "id": 322
  },
  {
    "full_address": "718 Woodlands Avenue 6, Singapore 730718",
    "address_line": "",
    "address": "718 Woodlands Avenue 6",
    "postal_code": "730718",
    "lat": 1.44181,
    "lng": 103.801,
    "name": "Bomb Shelter",
    "description": "718 Woodlands Avenue 6, Singapore 730718",
    "id": 323
  },
  {
    "full_address": "721 Woodlands Circle, Singapore 730721",
    "address_line": "",
    "address": "721 Woodlands Circle",
    "postal_code": "730721",
    "lat": 1.44426,
    "lng": 103.8,
    "name": "Bomb Shelter",
    "description": "721 Woodlands Circle, Singapore 730721",
    "id": 324
  },
  {
    "full_address": "724 Woodlands Avenue 6, Singapore 730724",
    "address_line": "",
    "address": "724 Woodlands Avenue 6",
    "postal_code": "730724",
    "lat": 1.44481,
    "lng": 103.799,
    "name": "Bomb Shelter",
    "description": "724 Woodlands Avenue 6, Singapore 730724",
    "id": 325
  },
  {
    "full_address": "729 Woodlands Circle, Singapore 730729",
    "address_line": "",
    "address": "729 Woodlands Circle",
    "postal_code": "730729",
    "lat": 1.44266,
    "lng": 103.799,
    "name": "Bomb Shelter",
    "description": "729 Woodlands Circle, Singapore 730729",
    "id": 326
  },
  {
    "full_address": "738 Woodlands Circle, Singapore 730738",
    "address_line": "",
    "address": "738 Woodlands Circle",
    "postal_code": "730738",
    "lat": 1.44419,
    "lng": 103.798,
    "name": "Bomb Shelter",
    "description": "738 Woodlands Circle, Singapore 730738",
    "id": 327
  },
  {
    "full_address": "740 Woodlands Circle, Singapore 730740",
    "address_line": "",
    "address": "740 Woodlands Circle",
    "postal_code": "730740",
    "lat": 1.44462,
    "lng": 103.796,
    "name": "Bomb Shelter",
    "description": "740 Woodlands Circle, Singapore 730740",
    "id": 328
  },
  {
    "full_address": "743 Woodlands Circle, Singapore 730743",
    "address_line": "",
    "address": "743 Woodlands Circle",
    "postal_code": "730743",
    "lat": 1.44384,
    "lng": 103.796,
    "name": "Bomb Shelter",
    "description": "743 Woodlands Circle, Singapore 730743",
    "id": 329
  },
  {
    "full_address": "747 Woodlands Circle, Singapore 730747",
    "address_line": "",
    "address": "747 Woodlands Circle",
    "postal_code": "730747",
    "lat": 1.44314,
    "lng": 103.795,
    "name": "Bomb Shelter",
    "description": "747 Woodlands Circle, Singapore 730747",
    "id": 330
  },
  {
    "full_address": "749 Woodlands Circle, Singapore 730749",
    "address_line": "",
    "address": "749 Woodlands Circle",
    "postal_code": "730749",
    "lat": 1.44468,
    "lng": 103.795,
    "name": "Bomb Shelter",
    "description": "749 Woodlands Circle, Singapore 730749",
    "id": 331
  },
  {
    "full_address": "756 Woodlands Avenue 4, Singapore 730756",
    "address_line": "",
    "address": "756 Woodlands Avenue 4",
    "postal_code": "730756",
    "lat": 1.44584,
    "lng": 103.793,
    "name": "Bomb Shelter",
    "description": "756 Woodlands Avenue 4, Singapore 730756",
    "id": 332
  },
  {
    "full_address": "759 Woodlands Avenue 6, Singapore 730759",
    "address_line": "",
    "address": "759 Woodlands Avenue 6",
    "postal_code": "730759",
    "lat": 1.44659,
    "lng": 103.796,
    "name": "Bomb Shelter",
    "description": "759 Woodlands Avenue 6, Singapore 730759",
    "id": 333
  },
  {
    "full_address": "763 Woodlands Avenue 6, Singapore 730763",
    "address_line": "",
    "address": "763 Woodlands Avenue 6",
    "postal_code": "730763",
    "lat": 1.44552,
    "lng": 103.796,
    "name": "Bomb Shelter",
    "description": "763 Woodlands Avenue 6, Singapore 730763",
    "id": 334
  },
  {
    "full_address": "791 Woodlands Avenue 6, Singapore 730791",
    "address_line": "",
    "address": "791 Woodlands Avenue 6",
    "postal_code": "730791",
    "lat": 1.44279,
    "lng": 103.802,
    "name": "Bomb Shelter",
    "description": "791 Woodlands Avenue 6, Singapore 730791",
    "id": 335
  },
  {
    "full_address": "792 Woodlands Avenue 6, Singapore 730792",
    "address_line": "",
    "address": "792 Woodlands Avenue 6",
    "postal_code": "730792",
    "lat": 1.4422,
    "lng": 103.802,
    "name": "Bomb Shelter",
    "description": "792 Woodlands Avenue 6, Singapore 730792",
    "id": 336
  },
  {
    "full_address": "795 Woodlands Drive 72, Singapore 730795",
    "address_line": "",
    "address": "795 Woodlands Drive 72",
    "postal_code": "730795",
    "lat": 1.44296,
    "lng": 103.804,
    "name": "Bomb Shelter",
    "description": "795 Woodlands Drive 72, Singapore 730795",
    "id": 337
  },
  {
    "full_address": "260 Boon Lay Drive, Singapore 640260",
    "address_line": "",
    "address": "260 Boon Lay Drive",
    "postal_code": "640260",
    "lat": 1.34524,
    "lng": 103.708,
    "name": "Bomb Shelter",
    "description": "260 Boon Lay Drive, Singapore 640260",
    "id": 338
  },
  {
    "full_address": "263 Boon Lay Drive, Singapore 640263",
    "address_line": "",
    "address": "263 Boon Lay Drive",
    "postal_code": "640263",
    "lat": 1.34513,
    "lng": 103.707,
    "name": "Bomb Shelter",
    "description": "263 Boon Lay Drive, Singapore 640263",
    "id": 339
  },
  {
    "full_address": "188 Bukit Batok West Avenue 6, Singapore 650188",
    "address_line": "",
    "address": "188 Bukit Batok West Avenue 6",
    "postal_code": "650188",
    "lat": 1.34618,
    "lng": 103.746,
    "name": "Bomb Shelter",
    "description": "188 Bukit Batok West Avenue 6, Singapore 650188",
    "id": 340
  },
  {
    "full_address": "625 Bukit Batok Central, Singapore 650625",
    "address_line": "",
    "address": "625 Bukit Batok Central",
    "postal_code": "650625",
    "lat": 1.35158,
    "lng": 103.749,
    "name": "Bomb Shelter",
    "description": "625 Bukit Batok Central, Singapore 650625",
    "id": 341
  },
  {
    "full_address": "Nature View, 288C Bukit Batok Street 25, Singapore 652288",
    "address_line": "Nature View",
    "address": "288C Bukit Batok Street 25",
    "postal_code": "652288",
    "lat": 1.34623,
    "lng": 103.76,
    "name": "Bomb Shelter",
    "description": "Nature View, 288C Bukit Batok Street 25, Singapore 652288",
    "id": 342
  },
  {
    "full_address": "Nature View, 289E Bukit Batok Street 25, Singapore 654289",
    "address_line": "Nature View",
    "address": "289E Bukit Batok Street 25",
    "postal_code": "654289",
    "lat": 1.34413,
    "lng": 103.759,
    "name": "Bomb Shelter",
    "description": "Nature View, 289E Bukit Batok Street 25, Singapore 654289",
    "id": 343
  },
  {
    "full_address": "Spring View, 290A Bukit Batok Street 24, Singapore 652290",
    "address_line": "Spring View",
    "address": "290A Bukit Batok Street 24",
    "postal_code": "652290",
    "lat": 1.34332,
    "lng": 103.757,
    "name": "Bomb Shelter",
    "description": "Spring View, 290A Bukit Batok Street 24, Singapore 652290",
    "id": 344
  },
  {
    "full_address": "Spring View, 290C Bukit Batok East Avenue 3, Singapore 650290",
    "address_line": "Spring View",
    "address": "290C Bukit Batok East Avenue 3",
    "postal_code": "650290",
    "lat": 1.34416,
    "lng": 103.757,
    "name": "Bomb Shelter",
    "description": "Spring View, 290C Bukit Batok East Avenue 3, Singapore 650290",
    "id": 345
  },
  {
    "full_address": "Spring View, 291B Bukit Batok Street 24, Singapore 651291",
    "address_line": "Spring View",
    "address": "291B Bukit Batok Street 24",
    "postal_code": "651291",
    "lat": 1.3432,
    "lng": 103.756,
    "name": "Bomb Shelter",
    "description": "Spring View, 291B Bukit Batok Street 24, Singapore 651291",
    "id": 346
  },
  {
    "full_address": "285 Bukit Batok East Avenue 3, Singapore 650285",
    "address_line": "",
    "address": "285 Bukit Batok East Avenue 3",
    "postal_code": "650285",
    "lat": 1.34634,
    "lng": 103.758,
    "name": "Bomb Shelter",
    "description": "285 Bukit Batok East Avenue 3, Singapore 650285",
    "id": 347
  },
  {
    "full_address": "171A Gangsa Road, Singapore 671171",
    "address_line": "",
    "address": "171A Gangsa Road",
    "postal_code": "671171",
    "lat": 1.37935,
    "lng": 103.766,
    "name": "Bomb Shelter",
    "description": "171A Gangsa Road, Singapore 671171",
    "id": 348
  },
  {
    "full_address": "436 Fajar Road, Singapore 670436",
    "address_line": "",
    "address": "436 Fajar Road",
    "postal_code": "670436",
    "lat": 1.38233,
    "lng": 103.77,
    "name": "Bomb Shelter",
    "description": "436 Fajar Road, Singapore 670436",
    "id": 349
  },
  {
    "full_address": "438 Fajar Road, Singapore 670438",
    "address_line": "",
    "address": "438 Fajar Road",
    "postal_code": "670438",
    "lat": 1.38284,
    "lng": 103.77,
    "name": "Bomb Shelter",
    "description": "438 Fajar Road, Singapore 670438",
    "id": 350
  },
  {
    "full_address": "439 Fajar Road, Singapore 670439",
    "address_line": "",
    "address": "439 Fajar Road",
    "postal_code": "670439",
    "lat": 1.38311,
    "lng": 103.771,
    "name": "Bomb Shelter",
    "description": "439 Fajar Road, Singapore 670439",
    "id": 351
  },
  {
    "full_address": "441 Fajar Road, Singapore 670441",
    "address_line": "",
    "address": "441 Fajar Road",
    "postal_code": "670441",
    "lat": 1.38329,
    "lng": 103.771,
    "name": "Bomb Shelter",
    "description": "441 Fajar Road, Singapore 670441",
    "id": 352
  },
  {
    "full_address": "442 Fajar Road, Singapore 670442",
    "address_line": "",
    "address": "442 Fajar Road",
    "postal_code": "670442",
    "lat": 1.38227,
    "lng": 103.771,
    "name": "Bomb Shelter",
    "description": "442 Fajar Road, Singapore 670442",
    "id": 353
  },
  {
    "full_address": "451 Fajar Road, Singapore 670451",
    "address_line": "",
    "address": "451 Fajar Road",
    "postal_code": "670451",
    "lat": 1.38511,
    "lng": 103.772,
    "name": "Bomb Shelter",
    "description": "451 Fajar Road, Singapore 670451",
    "id": 354
  },
  {
    "full_address": "453 Fajar Road, Singapore 670453",
    "address_line": "",
    "address": "453 Fajar Road",
    "postal_code": "670453",
    "lat": 1.38551,
    "lng": 103.772,
    "name": "Bomb Shelter",
    "description": "453 Fajar Road, Singapore 670453",
    "id": 355
  },
  {
    "full_address": "Panshan View, 501 Jelapang Road, Singapore 670501",
    "address_line": "Panshan View",
    "address": "501 Jelapang Road",
    "postal_code": "670501",
    "lat": 1.38315,
    "lng": 103.767,
    "name": "Bomb Shelter",
    "description": "Panshan View, 501 Jelapang Road, Singapore 670501",
    "id": 356
  },
  {
    "full_address": "Panshan View, 505 Jelapang Road, Singapore 670505",
    "address_line": "Panshan View",
    "address": "505 Jelapang Road",
    "postal_code": "670505",
    "lat": 1.38464,
    "lng": 103.768,
    "name": "Bomb Shelter",
    "description": "Panshan View, 505 Jelapang Road, Singapore 670505",
    "id": 357
  },
  {
    "full_address": "150 Jalan Teck Whye, Singapore 680150",
    "address_line": "",
    "address": "150 Jalan Teck Whye",
    "postal_code": "680150",
    "lat": 1.37828,
    "lng": 103.757,
    "name": "Bomb Shelter",
    "description": "150 Jalan Teck Whye, Singapore 680150",
    "id": 358
  },
  {
    "full_address": "151 Jalan Teck Whye, Singapore 680151",
    "address_line": "",
    "address": "151 Jalan Teck Whye",
    "postal_code": "680151",
    "lat": 1.37848,
    "lng": 103.757,
    "name": "Bomb Shelter",
    "description": "151 Jalan Teck Whye, Singapore 680151",
    "id": 359
  },
  {
    "full_address": "163 Jalan Teck Whye, Singapore 680163",
    "address_line": "",
    "address": "163 Jalan Teck Whye",
    "postal_code": "680163",
    "lat": 1.38109,
    "lng": 103.757,
    "name": "Bomb Shelter",
    "description": "163 Jalan Teck Whye, Singapore 680163",
    "id": 360
  },
  {
    "full_address": "202 Choa Chu Kang Avenue 1, Singapore 680202",
    "address_line": "",
    "address": "202 Choa Chu Kang Avenue 1",
    "postal_code": "680202",
    "lat": 1.382,
    "lng": 103.75,
    "name": "Bomb Shelter",
    "description": "202 Choa Chu Kang Avenue 1, Singapore 680202",
    "id": 361
  },
  {
    "full_address": "203 Choa Chu Kang Avenue 1, Singapore 680203",
    "address_line": "",
    "address": "203 Choa Chu Kang Avenue 1",
    "postal_code": "680203",
    "lat": 1.38141,
    "lng": 103.75,
    "name": "Bomb Shelter",
    "description": "203 Choa Chu Kang Avenue 1, Singapore 680203",
    "id": 362
  },
  {
    "full_address": "204 Choa Chu Kang Avenue 1, Singapore 680204",
    "address_line": "",
    "address": "204 Choa Chu Kang Avenue 1",
    "postal_code": "680204",
    "lat": 1.38069,
    "lng": 103.749,
    "name": "Bomb Shelter",
    "description": "204 Choa Chu Kang Avenue 1, Singapore 680204",
    "id": 363
  },
  {
    "full_address": "207 Choa Chu Kang Central, Singapore 680207",
    "address_line": "",
    "address": "207 Choa Chu Kang Central",
    "postal_code": "680207",
    "lat": 1.38121,
    "lng": 103.748,
    "name": "Bomb Shelter",
    "description": "207 Choa Chu Kang Central, Singapore 680207",
    "id": 364
  },
  {
    "full_address": "208 Choa Chu Kang Central, Singapore 680208",
    "address_line": "",
    "address": "208 Choa Chu Kang Central",
    "postal_code": "680208",
    "lat": 1.3815,
    "lng": 103.748,
    "name": "Bomb Shelter",
    "description": "208 Choa Chu Kang Central, Singapore 680208",
    "id": 365
  },
  {
    "full_address": "210 Choa Chu Kang Central, Singapore 680210",
    "address_line": "",
    "address": "210 Choa Chu Kang Central",
    "postal_code": "680210",
    "lat": 1.38272,
    "lng": 103.748,
    "name": "Bomb Shelter",
    "description": "210 Choa Chu Kang Central, Singapore 680210",
    "id": 366
  },
  {
    "full_address": "211 Choa Chu Kang Central, Singapore 680211",
    "address_line": "",
    "address": "211 Choa Chu Kang Central",
    "postal_code": "680211",
    "lat": 1.38212,
    "lng": 103.748,
    "name": "Bomb Shelter",
    "description": "211 Choa Chu Kang Central, Singapore 680211",
    "id": 367
  },
  {
    "full_address": "214 Choa Chu Kang Central, Singapore 680214",
    "address_line": "",
    "address": "214 Choa Chu Kang Central",
    "postal_code": "680214",
    "lat": 1.38257,
    "lng": 103.746,
    "name": "Bomb Shelter",
    "description": "214 Choa Chu Kang Central, Singapore 680214",
    "id": 368
  },
  {
    "full_address": "215 Choa Chu Kang Central, Singapore 680215",
    "address_line": "",
    "address": "215 Choa Chu Kang Central",
    "postal_code": "680215",
    "lat": 1.38299,
    "lng": 103.747,
    "name": "Bomb Shelter",
    "description": "215 Choa Chu Kang Central, Singapore 680215",
    "id": 369
  },
  {
    "full_address": "217 Choa Chu Kang Central, Singapore 680217",
    "address_line": "",
    "address": "217 Choa Chu Kang Central",
    "postal_code": "680217",
    "lat": 1.38329,
    "lng": 103.747,
    "name": "Bomb Shelter",
    "description": "217 Choa Chu Kang Central, Singapore 680217",
    "id": 370
  },
  {
    "full_address": "218 Choa Chu Kang Central, Singapore 680218",
    "address_line": "",
    "address": "218 Choa Chu Kang Central",
    "postal_code": "680218",
    "lat": 1.38287,
    "lng": 103.746,
    "name": "Bomb Shelter",
    "description": "218 Choa Chu Kang Central, Singapore 680218",
    "id": 371
  },
  {
    "full_address": "219 Choa Chu Kang Central, Singapore 680219",
    "address_line": "",
    "address": "219 Choa Chu Kang Central",
    "postal_code": "680219",
    "lat": 1.38253,
    "lng": 103.745,
    "name": "Bomb Shelter",
    "description": "219 Choa Chu Kang Central, Singapore 680219",
    "id": 372
  },
  {
    "full_address": "220 Choa Chu Kang Central, Singapore 680220",
    "address_line": "",
    "address": "220 Choa Chu Kang Central",
    "postal_code": "680220",
    "lat": 1.38208,
    "lng": 103.746,
    "name": "Bomb Shelter",
    "description": "220 Choa Chu Kang Central, Singapore 680220",
    "id": 373
  },
  {
    "full_address": "230 Choa Chu Kang Central, Singapore 680230",
    "address_line": "",
    "address": "230 Choa Chu Kang Central",
    "postal_code": "680230",
    "lat": 1.38033,
    "lng": 103.746,
    "name": "Bomb Shelter",
    "description": "230 Choa Chu Kang Central, Singapore 680230",
    "id": 374
  },
  {
    "full_address": "232 Choa Chu Kang Central, Singapore 680232",
    "address_line": "",
    "address": "232 Choa Chu Kang Central",
    "postal_code": "680232",
    "lat": 1.3806,
    "lng": 103.747,
    "name": "Bomb Shelter",
    "description": "232 Choa Chu Kang Central, Singapore 680232",
    "id": 375
  },
  {
    "full_address": "233 Choa Chu Kang Central, Singapore 680233",
    "address_line": "",
    "address": "233 Choa Chu Kang Central",
    "postal_code": "680233",
    "lat": 1.38043,
    "lng": 103.747,
    "name": "Bomb Shelter",
    "description": "233 Choa Chu Kang Central, Singapore 680233",
    "id": 376
  },
  {
    "full_address": "235 Choa Chu Kang Central, Singapore 680235",
    "address_line": "",
    "address": "235 Choa Chu Kang Central",
    "postal_code": "680235",
    "lat": 1.37982,
    "lng": 103.749,
    "name": "Bomb Shelter",
    "description": "235 Choa Chu Kang Central, Singapore 680235",
    "id": 377
  },
  {
    "full_address": "237 Choa Chu Kang Central, Singapore 680237",
    "address_line": "",
    "address": "237 Choa Chu Kang Central",
    "postal_code": "680237",
    "lat": 1.37939,
    "lng": 103.748,
    "name": "Bomb Shelter",
    "description": "237 Choa Chu Kang Central, Singapore 680237",
    "id": 378
  },
  {
    "full_address": "252 Choa Chu Kang Avenue 2, Singapore 680252",
    "address_line": "",
    "address": "252 Choa Chu Kang Avenue 2",
    "postal_code": "680252",
    "lat": 1.37819,
    "lng": 103.745,
    "name": "Bomb Shelter",
    "description": "252 Choa Chu Kang Avenue 2, Singapore 680252",
    "id": 379
  },
  {
    "full_address": "273 Choa Chu Kang Avenue 2, Singapore 680273",
    "address_line": "",
    "address": "273 Choa Chu Kang Avenue 2",
    "postal_code": "680273",
    "lat": 1.37932,
    "lng": 103.743,
    "name": "Bomb Shelter",
    "description": "273 Choa Chu Kang Avenue 2, Singapore 680273",
    "id": 380
  },
  {
    "full_address": "516 Choa Chu Kang Street 51, Singapore 680516",
    "address_line": "",
    "address": "516 Choa Chu Kang Street 51",
    "postal_code": "680516",
    "lat": 1.39072,
    "lng": 103.744,
    "name": "Bomb Shelter",
    "description": "516 Choa Chu Kang Street 51, Singapore 680516",
    "id": 381
  },
  {
    "full_address": "517 Choa Chu Kang Street 51, Singapore 680517",
    "address_line": "",
    "address": "517 Choa Chu Kang Street 51",
    "postal_code": "680517",
    "lat": 1.39084,
    "lng": 103.743,
    "name": "Bomb Shelter",
    "description": "517 Choa Chu Kang Street 51, Singapore 680517",
    "id": 382
  },
  {
    "full_address": "530 Choa Chu Kang Street 51, Singapore 680530",
    "address_line": "",
    "address": "530 Choa Chu Kang Street 51",
    "postal_code": "680530",
    "lat": 1.39274,
    "lng": 103.742,
    "name": "Bomb Shelter",
    "description": "530 Choa Chu Kang Street 51, Singapore 680530",
    "id": 383
  },
  {
    "full_address": "284 Choa Chu Kang Avenue 3, Singapore 680284",
    "address_line": "",
    "address": "284 Choa Chu Kang Avenue 3",
    "postal_code": "680284",
    "lat": 1.37992,
    "lng": 103.742,
    "name": "Bomb Shelter",
    "description": "284 Choa Chu Kang Avenue 3, Singapore 680284",
    "id": 384
  },
  {
    "full_address": "285 Choa Chu Kang Avenue 3, Singapore 680285",
    "address_line": "",
    "address": "285 Choa Chu Kang Avenue 3",
    "postal_code": "680285",
    "lat": 1.38017,
    "lng": 103.742,
    "name": "Bomb Shelter",
    "description": "285 Choa Chu Kang Avenue 3, Singapore 680285",
    "id": 385
  },
  {
    "full_address": "286 Choa Chu Kang Avenue 3, Singapore 680286",
    "address_line": "",
    "address": "286 Choa Chu Kang Avenue 3",
    "postal_code": "680286",
    "lat": 1.3798,
    "lng": 103.742,
    "name": "Bomb Shelter",
    "description": "286 Choa Chu Kang Avenue 3, Singapore 680286",
    "id": 386
  },
  {
    "full_address": "287 Choa Chu Kang Avenue 2, Singapore 680287",
    "address_line": "",
    "address": "287 Choa Chu Kang Avenue 2",
    "postal_code": "680287",
    "lat": 1.37866,
    "lng": 103.742,
    "name": "Bomb Shelter",
    "description": "287 Choa Chu Kang Avenue 2, Singapore 680287",
    "id": 387
  },
  {
    "full_address": "288 Choa Chu Kang Avenue 3, Singapore 680288",
    "address_line": "",
    "address": "288 Choa Chu Kang Avenue 3",
    "postal_code": "680288",
    "lat": 1.37915,
    "lng": 103.741,
    "name": "Bomb Shelter",
    "description": "288 Choa Chu Kang Avenue 3, Singapore 680288",
    "id": 388
  },
  {
    "full_address": "289 Choa Chu Kang Avenue 3, Singapore 680289",
    "address_line": "",
    "address": "289 Choa Chu Kang Avenue 3",
    "postal_code": "680289",
    "lat": 1.37941,
    "lng": 103.741,
    "name": "Bomb Shelter",
    "description": "289 Choa Chu Kang Avenue 3, Singapore 680289",
    "id": 389
  },
  {
    "full_address": "294 Choa Chu Kang Avenue 2, Singapore 680294",
    "address_line": "",
    "address": "294 Choa Chu Kang Avenue 2",
    "postal_code": "680294",
    "lat": 1.37867,
    "lng": 103.741,
    "name": "Bomb Shelter",
    "description": "294 Choa Chu Kang Avenue 2, Singapore 680294",
    "id": 390
  },
  {
    "full_address": "295 Choa Chu Kang Avenue 2, Singapore 680295",
    "address_line": "",
    "address": "295 Choa Chu Kang Avenue 2",
    "postal_code": "680295",
    "lat": 1.37831,
    "lng": 103.741,
    "name": "Bomb Shelter",
    "description": "295 Choa Chu Kang Avenue 2, Singapore 680295",
    "id": 391
  },
  {
    "full_address": "296 Choa Chu Kang Avenue 2, Singapore 680296",
    "address_line": "",
    "address": "296 Choa Chu Kang Avenue 2",
    "postal_code": "680296",
    "lat": 1.37744,
    "lng": 103.741,
    "name": "Bomb Shelter",
    "description": "296 Choa Chu Kang Avenue 2, Singapore 680296",
    "id": 392
  },
  {
    "full_address": "297 Choa Chu Kang Avenue 2, Singapore 680297",
    "address_line": "",
    "address": "297 Choa Chu Kang Avenue 2",
    "postal_code": "680297",
    "lat": 1.37716,
    "lng": 103.742,
    "name": "Bomb Shelter",
    "description": "297 Choa Chu Kang Avenue 2, Singapore 680297",
    "id": 393
  },
  {
    "full_address": "340 Choa Chu Kang Loop, Singapore 680340",
    "address_line": "",
    "address": "340 Choa Chu Kang Loop",
    "postal_code": "680340",
    "lat": 1.38387,
    "lng": 103.745,
    "name": "Bomb Shelter",
    "description": "340 Choa Chu Kang Loop, Singapore 680340",
    "id": 394
  },
  {
    "full_address": "445 Choa Chu Kang Avenue 4, Singapore 680445",
    "address_line": "",
    "address": "445 Choa Chu Kang Avenue 4",
    "postal_code": "680445",
    "lat": 1.38186,
    "lng": 103.737,
    "name": "Bomb Shelter",
    "description": "445 Choa Chu Kang Avenue 4, Singapore 680445",
    "id": 395
  },
  {
    "full_address": "447 Choa Chu Kang Avenue 4, Singapore 680447",
    "address_line": "",
    "address": "447 Choa Chu Kang Avenue 4",
    "postal_code": "680447",
    "lat": 1.38067,
    "lng": 103.738,
    "name": "Bomb Shelter",
    "description": "447 Choa Chu Kang Avenue 4, Singapore 680447",
    "id": 396
  },
  {
    "full_address": "705 Jurong West Street 71, Singapore 640705",
    "address_line": "",
    "address": "705 Jurong West Street 71",
    "postal_code": "640705",
    "lat": 1.3411,
    "lng": 103.695,
    "name": "Bomb Shelter",
    "description": "705 Jurong West Street 71, Singapore 640705",
    "id": 397
  },
  {
    "full_address": "709 Jurong West Street 71, Singapore 640709",
    "address_line": "",
    "address": "709 Jurong West Street 71",
    "postal_code": "640709",
    "lat": 1.34255,
    "lng": 103.695,
    "name": "Bomb Shelter",
    "description": "709 Jurong West Street 71, Singapore 640709",
    "id": 398
  },
  {
    "full_address": "711 Jurong West Street 71, Singapore 640711",
    "address_line": "",
    "address": "711 Jurong West Street 71",
    "postal_code": "640711",
    "lat": 1.34314,
    "lng": 103.696,
    "name": "Bomb Shelter",
    "description": "711 Jurong West Street 71, Singapore 640711",
    "id": 399
  },
  {
    "full_address": "713 Jurong West Street 71, Singapore 640713",
    "address_line": "",
    "address": "713 Jurong West Street 71",
    "postal_code": "640713",
    "lat": 1.34345,
    "lng": 103.696,
    "name": "Bomb Shelter",
    "description": "713 Jurong West Street 71, Singapore 640713",
    "id": 400
  },
  {
    "full_address": "714 Jurong West Street 71, Singapore 640714",
    "address_line": "",
    "address": "714 Jurong West Street 71",
    "postal_code": "640714",
    "lat": 1.34308,
    "lng": 103.697,
    "name": "Bomb Shelter",
    "description": "714 Jurong West Street 71, Singapore 640714",
    "id": 401
  },
  {
    "full_address": "715 Jurong West Street 71, Singapore 640715",
    "address_line": "",
    "address": "715 Jurong West Street 71",
    "postal_code": "640715",
    "lat": 1.34385,
    "lng": 103.696,
    "name": "Bomb Shelter",
    "description": "715 Jurong West Street 71, Singapore 640715",
    "id": 402
  },
  {
    "full_address": "716 Jurong West Street 71, Singapore 640716",
    "address_line": "",
    "address": "716 Jurong West Street 71",
    "postal_code": "640716",
    "lat": 1.34408,
    "lng": 103.697,
    "name": "Bomb Shelter",
    "description": "716 Jurong West Street 71, Singapore 640716",
    "id": 403
  },
  {
    "full_address": "717 Jurong West Street 71, Singapore 640717",
    "address_line": "",
    "address": "717 Jurong West Street 71",
    "postal_code": "640717",
    "lat": 1.34319,
    "lng": 103.698,
    "name": "Bomb Shelter",
    "description": "717 Jurong West Street 71, Singapore 640717",
    "id": 404
  },
  {
    "full_address": "718 Jurong West Street 71, Singapore 640718",
    "address_line": "",
    "address": "718 Jurong West Street 71",
    "postal_code": "640718",
    "lat": 1.34355,
    "lng": 103.698,
    "name": "Bomb Shelter",
    "description": "718 Jurong West Street 71, Singapore 640718",
    "id": 405
  },
  {
    "full_address": "720 Jurong West Avenue 5, Singapore 640720",
    "address_line": "",
    "address": "720 Jurong West Avenue 5",
    "postal_code": "640720",
    "lat": 1.34438,
    "lng": 103.698,
    "name": "Bomb Shelter",
    "description": "720 Jurong West Avenue 5, Singapore 640720",
    "id": 406
  },
  {
    "full_address": "721 Jurong West Avenue 5, Singapore 640721",
    "address_line": "",
    "address": "721 Jurong West Avenue 5",
    "postal_code": "640721",
    "lat": 1.34404,
    "lng": 103.698,
    "name": "Bomb Shelter",
    "description": "721 Jurong West Avenue 5, Singapore 640721",
    "id": 407
  },
  {
    "full_address": "722 Jurong West Avenue 5, Singapore 640722",
    "address_line": "",
    "address": "722 Jurong West Avenue 5",
    "postal_code": "640722",
    "lat": 1.34377,
    "lng": 103.698,
    "name": "Bomb Shelter",
    "description": "722 Jurong West Avenue 5, Singapore 640722",
    "id": 408
  },
  {
    "full_address": "723 Jurong West Avenue 5, Singapore 640723",
    "address_line": "",
    "address": "723 Jurong West Avenue 5",
    "postal_code": "640723",
    "lat": 1.34438,
    "lng": 103.698,
    "name": "Bomb Shelter",
    "description": "723 Jurong West Avenue 5, Singapore 640723",
    "id": 409
  },
  {
    "full_address": "724 Jurong West Street 72, Singapore 640724",
    "address_line": "",
    "address": "724 Jurong West Street 72",
    "postal_code": "640724",
    "lat": 1.3452,
    "lng": 103.698,
    "name": "Bomb Shelter",
    "description": "724 Jurong West Street 72, Singapore 640724",
    "id": 410
  },
  {
    "full_address": "725 Jurong West Avenue 5, Singapore 640725",
    "address_line": "",
    "address": "725 Jurong West Avenue 5",
    "postal_code": "640725",
    "lat": 1.34548,
    "lng": 103.698,
    "name": "Bomb Shelter",
    "description": "725 Jurong West Avenue 5, Singapore 640725",
    "id": 411
  },
  {
    "full_address": "727 Jurong West Avenue 5, Singapore 640727",
    "address_line": "",
    "address": "727 Jurong West Avenue 5",
    "postal_code": "640727",
    "lat": 1.34581,
    "lng": 103.698,
    "name": "Bomb Shelter",
    "description": "727 Jurong West Avenue 5, Singapore 640727",
    "id": 412
  },
  {
    "full_address": "728 Jurong West Avenue 5, Singapore 640728",
    "address_line": "",
    "address": "728 Jurong West Avenue 5",
    "postal_code": "640728",
    "lat": 1.34613,
    "lng": 103.698,
    "name": "Bomb Shelter",
    "description": "728 Jurong West Avenue 5, Singapore 640728",
    "id": 413
  },
  {
    "full_address": "729 Jurong West Avenue 5, Singapore 640729",
    "address_line": "",
    "address": "729 Jurong West Avenue 5",
    "postal_code": "640729",
    "lat": 1.34644,
    "lng": 103.698,
    "name": "Bomb Shelter",
    "description": "729 Jurong West Avenue 5, Singapore 640729",
    "id": 414
  },
  {
    "full_address": "730 Jurong West Street 72, Singapore 640730",
    "address_line": "",
    "address": "730 Jurong West Street 72",
    "postal_code": "640730",
    "lat": 1.34621,
    "lng": 103.699,
    "name": "Bomb Shelter",
    "description": "730 Jurong West Street 72, Singapore 640730",
    "id": 415
  },
  {
    "full_address": "731 Jurong West Street 72, Singapore 640731",
    "address_line": "",
    "address": "731 Jurong West Street 72",
    "postal_code": "640731",
    "lat": 1.34569,
    "lng": 103.699,
    "name": "Bomb Shelter",
    "description": "731 Jurong West Street 72, Singapore 640731",
    "id": 416
  },
  {
    "full_address": "732 Jurong West Street 73, Singapore 640732",
    "address_line": "",
    "address": "732 Jurong West Street 73",
    "postal_code": "640732",
    "lat": 1.34608,
    "lng": 103.7,
    "name": "Bomb Shelter",
    "description": "732 Jurong West Street 73, Singapore 640732",
    "id": 417
  },
  {
    "full_address": "735 Jurong West Street 75, Singapore 640735",
    "address_line": "",
    "address": "735 Jurong West Street 75",
    "postal_code": "640735",
    "lat": 1.34591,
    "lng": 103.701,
    "name": "Bomb Shelter",
    "description": "735 Jurong West Street 75, Singapore 640735",
    "id": 418
  },
  {
    "full_address": "Gek Poh Ville, 743 Jurong West Street 73, Singapore 640743",
    "address_line": "Gek Poh Ville",
    "address": "743 Jurong West Street 73",
    "postal_code": "640743",
    "lat": 1.34734,
    "lng": 103.699,
    "name": "Bomb Shelter",
    "description": "Gek Poh Ville, 743 Jurong West Street 73, Singapore 640743",
    "id": 419
  },
  {
    "full_address": "Gek Poh Ville, 745 Jurong West Street 73, Singapore 640745",
    "address_line": "Gek Poh Ville",
    "address": "745 Jurong West Street 73",
    "postal_code": "640745",
    "lat": 1.34706,
    "lng": 103.698,
    "name": "Bomb Shelter",
    "description": "Gek Poh Ville, 745 Jurong West Street 73, Singapore 640745",
    "id": 420
  },
  {
    "full_address": "Gek Poh Ville, 746 Jurong West Street 73, Singapore 640746",
    "address_line": "Gek Poh Ville",
    "address": "746 Jurong West Street 73",
    "postal_code": "640746",
    "lat": 1.34748,
    "lng": 103.698,
    "name": "Bomb Shelter",
    "description": "Gek Poh Ville, 746 Jurong West Street 73, Singapore 640746",
    "id": 421
  },
  {
    "full_address": "Gek Poh Ville, 748 Jurong West Street 73, Singapore 640748",
    "address_line": "Gek Poh Ville",
    "address": "748 Jurong West Street 73",
    "postal_code": "640748",
    "lat": 1.3478,
    "lng": 103.698,
    "name": "Bomb Shelter",
    "description": "Gek Poh Ville, 748 Jurong West Street 73, Singapore 640748",
    "id": 422
  },
  {
    "full_address": "Gek Poh Ville, 749 Jurong West Street 73, Singapore 640749",
    "address_line": "Gek Poh Ville",
    "address": "749 Jurong West Street 73",
    "postal_code": "640749",
    "lat": 1.34811,
    "lng": 103.698,
    "name": "Bomb Shelter",
    "description": "Gek Poh Ville, 749 Jurong West Street 73, Singapore 640749",
    "id": 423
  },
  {
    "full_address": "Gek Poh Ville, 751 Jurong West Street 73, Singapore 640751",
    "address_line": "Gek Poh Ville",
    "address": "751 Jurong West Street 73",
    "postal_code": "640751",
    "lat": 1.34766,
    "lng": 103.699,
    "name": "Bomb Shelter",
    "description": "Gek Poh Ville, 751 Jurong West Street 73, Singapore 640751",
    "id": 424
  },
  {
    "full_address": "760 Jurong West Street 74, Singapore 640760",
    "address_line": "",
    "address": "760 Jurong West Street 74",
    "postal_code": "640760",
    "lat": 1.34944,
    "lng": 103.7,
    "name": "Bomb Shelter",
    "description": "760 Jurong West Street 74, Singapore 640760",
    "id": 425
  },
  {
    "full_address": "810 Jurong West Street 81, Singapore 640810",
    "address_line": "",
    "address": "810 Jurong West Street 81",
    "postal_code": "640810",
    "lat": 1.34679,
    "lng": 103.695,
    "name": "Bomb Shelter",
    "description": "810 Jurong West Street 81, Singapore 640810",
    "id": 426
  },
  {
    "full_address": "811 Jurong West Street 81, Singapore 640811",
    "address_line": "",
    "address": "811 Jurong West Street 81",
    "postal_code": "640811",
    "lat": 1.34639,
    "lng": 103.696,
    "name": "Bomb Shelter",
    "description": "811 Jurong West Street 81, Singapore 640811",
    "id": 427
  },
  {
    "full_address": "812 Jurong West Street 81, Singapore 640812",
    "address_line": "",
    "address": "812 Jurong West Street 81",
    "postal_code": "640812",
    "lat": 1.34636,
    "lng": 103.696,
    "name": "Bomb Shelter",
    "description": "812 Jurong West Street 81, Singapore 640812",
    "id": 428
  },
  {
    "full_address": "813 Jurong West Street 81, Singapore 640813",
    "address_line": "",
    "address": "813 Jurong West Street 81",
    "postal_code": "640813",
    "lat": 1.34604,
    "lng": 103.696,
    "name": "Bomb Shelter",
    "description": "813 Jurong West Street 81, Singapore 640813",
    "id": 429
  },
  {
    "full_address": "814 Jurong West Street 81, Singapore 640814",
    "address_line": "",
    "address": "814 Jurong West Street 81",
    "postal_code": "640814",
    "lat": 1.34571,
    "lng": 103.696,
    "name": "Bomb Shelter",
    "description": "814 Jurong West Street 81, Singapore 640814",
    "id": 430
  },
  {
    "full_address": "815 Jurong West Street 81, Singapore 640815",
    "address_line": "",
    "address": "815 Jurong West Street 81",
    "postal_code": "640815",
    "lat": 1.34538,
    "lng": 103.696,
    "name": "Bomb Shelter",
    "description": "815 Jurong West Street 81, Singapore 640815",
    "id": 431
  },
  {
    "full_address": "816 Jurong West Street 81, Singapore 640816",
    "address_line": "",
    "address": "816 Jurong West Street 81",
    "postal_code": "640816",
    "lat": 1.34548,
    "lng": 103.696,
    "name": "Bomb Shelter",
    "description": "816 Jurong West Street 81, Singapore 640816",
    "id": 432
  },
  {
    "full_address": "821 Jurong West Street 81, Singapore 640821",
    "address_line": "",
    "address": "821 Jurong West Street 81",
    "postal_code": "640821",
    "lat": 1.34704,
    "lng": 103.695,
    "name": "Bomb Shelter",
    "description": "821 Jurong West Street 81, Singapore 640821",
    "id": 433
  },
  {
    "full_address": "823 Jurong West Street 81, Singapore 640823",
    "address_line": "",
    "address": "823 Jurong West Street 81",
    "postal_code": "640823",
    "lat": 1.34675,
    "lng": 103.694,
    "name": "Bomb Shelter",
    "description": "823 Jurong West Street 81, Singapore 640823",
    "id": 434
  },
  {
    "full_address": "824 Jurong West Street 81, Singapore 640824",
    "address_line": "",
    "address": "824 Jurong West Street 81",
    "postal_code": "640824",
    "lat": 1.34645,
    "lng": 103.694,
    "name": "Bomb Shelter",
    "description": "824 Jurong West Street 81, Singapore 640824",
    "id": 435
  },
  {
    "full_address": "826 Jurong West Street 81, Singapore 640826",
    "address_line": "",
    "address": "826 Jurong West Street 81",
    "postal_code": "640826",
    "lat": 1.3461,
    "lng": 103.694,
    "name": "Bomb Shelter",
    "description": "826 Jurong West Street 81, Singapore 640826",
    "id": 436
  },
  {
    "full_address": "835 Jurong West Street 81, Singapore 640835",
    "address_line": "",
    "address": "835 Jurong West Street 81",
    "postal_code": "640835",
    "lat": 1.34355,
    "lng": 103.694,
    "name": "Bomb Shelter",
    "description": "835 Jurong West Street 81, Singapore 640835",
    "id": 437
  },
  {
    "full_address": "836 Jurong West Street 81, Singapore 640836",
    "address_line": "",
    "address": "836 Jurong West Street 81",
    "postal_code": "640836",
    "lat": 1.34292,
    "lng": 103.693,
    "name": "Bomb Shelter",
    "description": "836 Jurong West Street 81, Singapore 640836",
    "id": 438
  },
  {
    "full_address": "838 Jurong West Street 81, Singapore 640838",
    "address_line": "",
    "address": "838 Jurong West Street 81",
    "postal_code": "640838",
    "lat": 1.3439,
    "lng": 103.694,
    "name": "Bomb Shelter",
    "description": "838 Jurong West Street 81, Singapore 640838",
    "id": 439
  },
  {
    "full_address": "840 Jurong West Street 81, Singapore 640840",
    "address_line": "",
    "address": "840 Jurong West Street 81",
    "postal_code": "640840",
    "lat": 1.3443,
    "lng": 103.692,
    "name": "Bomb Shelter",
    "description": "840 Jurong West Street 81, Singapore 640840",
    "id": 440
  },
  {
    "full_address": "845 Jurong West Street 81, Singapore 640845",
    "address_line": "",
    "address": "845 Jurong West Street 81",
    "postal_code": "640845",
    "lat": 1.34481,
    "lng": 103.692,
    "name": "Bomb Shelter",
    "description": "845 Jurong West Street 81, Singapore 640845",
    "id": 441
  },
  {
    "full_address": "850 Jurong West Street 81, Singapore 640850",
    "address_line": "",
    "address": "850 Jurong West Street 81",
    "postal_code": "640850",
    "lat": 1.34638,
    "lng": 103.692,
    "name": "Bomb Shelter",
    "description": "850 Jurong West Street 81, Singapore 640850",
    "id": 442
  },
  {
    "full_address": "852 Jurong West Street 81, Singapore 640852",
    "address_line": "",
    "address": "852 Jurong West Street 81",
    "postal_code": "640852",
    "lat": 1.34744,
    "lng": 103.693,
    "name": "Bomb Shelter",
    "description": "852 Jurong West Street 81, Singapore 640852",
    "id": 443
  },
  {
    "full_address": "854 Jurong West Street 81, Singapore 640854",
    "address_line": "",
    "address": "854 Jurong West Street 81",
    "postal_code": "640854",
    "lat": 1.34735,
    "lng": 103.696,
    "name": "Bomb Shelter",
    "description": "854 Jurong West Street 81, Singapore 640854",
    "id": 444
  },
  {
    "full_address": "859 Jurong West Street 81, Singapore 640859",
    "address_line": "",
    "address": "859 Jurong West Street 81",
    "postal_code": "640859",
    "lat": 1.34921,
    "lng": 103.696,
    "name": "Bomb Shelter",
    "description": "859 Jurong West Street 81, Singapore 640859",
    "id": 445
  },
  {
    "full_address": "863 Jurong West Street 81, Singapore 640863",
    "address_line": "",
    "address": "863 Jurong West Street 81",
    "postal_code": "640863",
    "lat": 1.34911,
    "lng": 103.695,
    "name": "Bomb Shelter",
    "description": "863 Jurong West Street 81, Singapore 640863",
    "id": 446
  },
  {
    "full_address": "690 Jurong West Central 1, Singapore 640690",
    "address_line": "",
    "address": "690 Jurong West Central 1",
    "postal_code": "640690",
    "lat": 1.3414,
    "lng": 103.707,
    "name": "Bomb Shelter",
    "description": "690 Jurong West Central 1, Singapore 640690",
    "id": 447
  },
  {
    "full_address": "691 Jurong West Central 1, Singapore 640691",
    "address_line": "",
    "address": "691 Jurong West Central 1",
    "postal_code": "640691",
    "lat": 1.34199,
    "lng": 103.706,
    "name": "Bomb Shelter",
    "description": "691 Jurong West Central 1, Singapore 640691",
    "id": 448
  },
  {
    "full_address": "692 Jurong West Central 1, Singapore 640692",
    "address_line": "",
    "address": "692 Jurong West Central 1",
    "postal_code": "640692",
    "lat": 1.34242,
    "lng": 103.707,
    "name": "Bomb Shelter",
    "description": "692 Jurong West Central 1, Singapore 640692",
    "id": 449
  },
  {
    "full_address": "694 Jurong West Central 1, Singapore 640694",
    "address_line": "",
    "address": "694 Jurong West Central 1",
    "postal_code": "640694",
    "lat": 1.34338,
    "lng": 103.707,
    "name": "Bomb Shelter",
    "description": "694 Jurong West Central 1, Singapore 640694",
    "id": 450
  },
  {
    "full_address": "151 Yung Ho Road, Singapore 610151",
    "address_line": "",
    "address": "151 Yung Ho Road",
    "postal_code": "610151",
    "lat": 1.32684,
    "lng": 103.721,
    "name": "Bomb Shelter",
    "description": "151 Yung Ho Road, Singapore 610151",
    "id": 451
  },
  {
    "full_address": "152 Yung Ho Road, Singapore 610152",
    "address_line": "",
    "address": "152 Yung Ho Road",
    "postal_code": "610152",
    "lat": 1.32726,
    "lng": 103.721,
    "name": "Bomb Shelter",
    "description": "152 Yung Ho Road, Singapore 610152",
    "id": 452
  },
  {
    "full_address": "153 Yung Ho Road, Singapore 610153",
    "address_line": "",
    "address": "153 Yung Ho Road",
    "postal_code": "610153",
    "lat": 1.32761,
    "lng": 103.721,
    "name": "Bomb Shelter",
    "description": "153 Yung Ho Road, Singapore 610153",
    "id": 453
  },
  {
    "full_address": "154 Yung Ho Road, Singapore 610154",
    "address_line": "",
    "address": "154 Yung Ho Road",
    "postal_code": "610154",
    "lat": 1.32718,
    "lng": 103.722,
    "name": "Bomb Shelter",
    "description": "154 Yung Ho Road, Singapore 610154",
    "id": 454
  },
  {
    "full_address": "155 Yung Loh Road, Singapore 610155",
    "address_line": "",
    "address": "155 Yung Loh Road",
    "postal_code": "610155",
    "lat": 1.32779,
    "lng": 103.722,
    "name": "Bomb Shelter",
    "description": "155 Yung Loh Road, Singapore 610155",
    "id": 455
  },
  {
    "full_address": "163 Yung Ping Road, Singapore 610163",
    "address_line": "",
    "address": "163 Yung Ping Road",
    "postal_code": "610163",
    "lat": 1.33017,
    "lng": 103.723,
    "name": "Bomb Shelter",
    "description": "163 Yung Ping Road, Singapore 610163",
    "id": 456
  },
  {
    "full_address": "323 Tah Ching Road, Singapore 610323",
    "address_line": "",
    "address": "323 Tah Ching Road",
    "postal_code": "610323",
    "lat": 1.3367,
    "lng": 103.724,
    "name": "Bomb Shelter",
    "description": "323 Tah Ching Road, Singapore 610323",
    "id": 457
  },
  {
    "full_address": "324 Tah Ching Road, Singapore 610324",
    "address_line": "",
    "address": "324 Tah Ching Road",
    "postal_code": "610324",
    "lat": 1.33646,
    "lng": 103.723,
    "name": "Bomb Shelter",
    "description": "324 Tah Ching Road, Singapore 610324",
    "id": 458
  },
  {
    "full_address": "332 Tah Ching Road, Singapore 610332",
    "address_line": "",
    "address": "332 Tah Ching Road",
    "postal_code": "610332",
    "lat": 1.33875,
    "lng": 103.724,
    "name": "Bomb Shelter",
    "description": "332 Tah Ching Road, Singapore 610332",
    "id": 459
  },
  {
    "full_address": "347 Kang Ching Road, Singapore 610347",
    "address_line": "",
    "address": "347 Kang Ching Road",
    "postal_code": "610347",
    "lat": 1.3406,
    "lng": 103.72,
    "name": "Bomb Shelter",
    "description": "347 Kang Ching Road, Singapore 610347",
    "id": 460
  },
  {
    "full_address": "351 Corporation Drive, Singapore 610351",
    "address_line": "",
    "address": "351 Corporation Drive",
    "postal_code": "610351",
    "lat": 1.33921,
    "lng": 103.72,
    "name": "Bomb Shelter",
    "description": "351 Corporation Drive, Singapore 610351",
    "id": 461
  },
  {
    "full_address": "353 Kang Ching Road, Singapore 610353",
    "address_line": "",
    "address": "353 Kang Ching Road",
    "postal_code": "610353",
    "lat": 1.33969,
    "lng": 103.721,
    "name": "Bomb Shelter",
    "description": "353 Kang Ching Road, Singapore 610353",
    "id": 462
  },
  {
    "full_address": "359 Yung An Road, Singapore 610359",
    "address_line": "",
    "address": "359 Yung An Road",
    "postal_code": "610359",
    "lat": 1.33616,
    "lng": 103.721,
    "name": "Bomb Shelter",
    "description": "359 Yung An Road, Singapore 610359",
    "id": 463
  },
  {
    "full_address": "362 Yung An Road, Singapore 610362",
    "address_line": "",
    "address": "362 Yung An Road",
    "postal_code": "610362",
    "lat": 1.33624,
    "lng": 103.72,
    "name": "Bomb Shelter",
    "description": "362 Yung An Road, Singapore 610362",
    "id": 464
  },
  {
    "full_address": "368 Corporation Drive, Singapore 610368",
    "address_line": "",
    "address": "368 Corporation Drive",
    "postal_code": "610368",
    "lat": 1.33748,
    "lng": 103.72,
    "name": "Bomb Shelter",
    "description": "368 Corporation Drive, Singapore 610368",
    "id": 465
  },
  {
    "full_address": "351 Woodlands Avenue 1, Singapore 730351",
    "address_line": "",
    "address": "351 Woodlands Avenue 1",
    "postal_code": "730351",
    "lat": 1.43243,
    "lng": 103.784,
    "name": "Bomb Shelter",
    "description": "351 Woodlands Avenue 1, Singapore 730351",
    "id": 466
  },
  {
    "full_address": "355 Woodlands Avenue 1, Singapore 730355",
    "address_line": "",
    "address": "355 Woodlands Avenue 1",
    "postal_code": "730355",
    "lat": 1.43283,
    "lng": 103.785,
    "name": "Bomb Shelter",
    "description": "355 Woodlands Avenue 1, Singapore 730355",
    "id": 467
  },
  {
    "full_address": "363 Woodlands Avenue 5, Singapore 730363",
    "address_line": "",
    "address": "363 Woodlands Avenue 5",
    "postal_code": "730363",
    "lat": 1.43399,
    "lng": 103.786,
    "name": "Bomb Shelter",
    "description": "363 Woodlands Avenue 5, Singapore 730363",
    "id": 468
  },
  {
    "full_address": "368 Woodlands Avenue 1, Singapore 730368",
    "address_line": "",
    "address": "368 Woodlands Avenue 1",
    "postal_code": "730368",
    "lat": 1.43305,
    "lng": 103.787,
    "name": "Bomb Shelter",
    "description": "368 Woodlands Avenue 1, Singapore 730368",
    "id": 469
  },
  {
    "full_address": "401 Woodlands Street 41, Singapore 730401",
    "address_line": "",
    "address": "401 Woodlands Street 41",
    "postal_code": "730401",
    "lat": 1.4305,
    "lng": 103.773,
    "name": "Bomb Shelter",
    "description": "401 Woodlands Street 41, Singapore 730401",
    "id": 470
  },
  {
    "full_address": "408 Woodlands Street 41, Singapore 730408",
    "address_line": "",
    "address": "408 Woodlands Street 41",
    "postal_code": "730408",
    "lat": 1.42887,
    "lng": 103.772,
    "name": "Bomb Shelter",
    "description": "408 Woodlands Street 41, Singapore 730408",
    "id": 471
  },
  {
    "full_address": "418 Woodlands Street 41, Singapore 730418",
    "address_line": "",
    "address": "418 Woodlands Street 41",
    "postal_code": "730418",
    "lat": 1.42886,
    "lng": 103.775,
    "name": "Bomb Shelter",
    "description": "418 Woodlands Street 41, Singapore 730418",
    "id": 472
  },
  {
    "full_address": "424 Woodlands Street 41, Singapore 730424",
    "address_line": "",
    "address": "424 Woodlands Street 41",
    "postal_code": "730424",
    "lat": 1.42726,
    "lng": 103.775,
    "name": "Bomb Shelter",
    "description": "424 Woodlands Street 41, Singapore 730424",
    "id": 473
  },
  {
    "full_address": "601 Woodlands Drive 42, Singapore 730601",
    "address_line": "",
    "address": "601 Woodlands Drive 42",
    "postal_code": "730601",
    "lat": 1.4386,
    "lng": 103.797,
    "name": "Bomb Shelter",
    "description": "601 Woodlands Drive 42, Singapore 730601",
    "id": 474
  },
  {
    "full_address": "605 Woodlands Drive 42, Singapore 730605",
    "address_line": "",
    "address": "605 Woodlands Drive 42",
    "postal_code": "730605",
    "lat": 1.43743,
    "lng": 103.797,
    "name": "Bomb Shelter",
    "description": "605 Woodlands Drive 42, Singapore 730605",
    "id": 475
  },
  {
    "full_address": "810 Woodlands Street 81, Singapore 730810",
    "address_line": "",
    "address": "810 Woodlands Street 81",
    "postal_code": "730810",
    "lat": 1.44273,
    "lng": 103.788,
    "name": "Bomb Shelter",
    "description": "810 Woodlands Street 81, Singapore 730810",
    "id": 476
  },
  {
    "full_address": "827 Woodlands Street 81, Singapore 730827",
    "address_line": "",
    "address": "827 Woodlands Street 81",
    "postal_code": "730827",
    "lat": 1.43992,
    "lng": 103.789,
    "name": "Bomb Shelter",
    "description": "827 Woodlands Street 81, Singapore 730827",
    "id": 477
  },
  {
    "full_address": "846 Woodlands Avenue 4, Singapore 730846",
    "address_line": "",
    "address": "846 Woodlands Avenue 4",
    "postal_code": "730846",
    "lat": 1.44347,
    "lng": 103.794,
    "name": "Bomb Shelter",
    "description": "846 Woodlands Avenue 4, Singapore 730846",
    "id": 478
  },
  {
    "full_address": "851 Woodlands Street 83, Singapore 730851",
    "address_line": "",
    "address": "851 Woodlands Street 83",
    "postal_code": "730851",
    "lat": 1.44033,
    "lng": 103.793,
    "name": "Bomb Shelter",
    "description": "851 Woodlands Street 83, Singapore 730851",
    "id": 479
  },
  {
    "full_address": "859 Woodlands Street 83, Singapore 730859",
    "address_line": "",
    "address": "859 Woodlands Street 83",
    "postal_code": "730859",
    "lat": 1.43982,
    "lng": 103.794,
    "name": "Bomb Shelter",
    "description": "859 Woodlands Street 83, Singapore 730859",
    "id": 480
  },
  {
    "full_address": "871 Woodlands Street 81, Singapore 730871",
    "address_line": "",
    "address": "871 Woodlands Street 81",
    "postal_code": "730871",
    "lat": 1.44389,
    "lng": 103.789,
    "name": "Bomb Shelter",
    "description": "871 Woodlands Street 81, Singapore 730871",
    "id": 481
  },
  {
    "full_address": "876 Woodlands Avenue 9, Singapore 730876",
    "address_line": "",
    "address": "876 Woodlands Avenue 9",
    "postal_code": "730876",
    "lat": 1.44473,
    "lng": 103.791,
    "name": "Bomb Shelter",
    "description": "876 Woodlands Avenue 9, Singapore 730876",
    "id": 482
  },
  {
    "full_address": "880 Woodlands Street 82, Singapore 730880",
    "address_line": "",
    "address": "880 Woodlands Street 82",
    "postal_code": "730880",
    "lat": 1.44454,
    "lng": 103.793,
    "name": "Bomb Shelter",
    "description": "880 Woodlands Street 82, Singapore 730880",
    "id": 483
  },
  {
    "full_address": "892A Woodlands Drive 50, Singapore 730892",
    "address_line": "",
    "address": "892A Woodlands Drive 50",
    "postal_code": "730892",
    "lat": 1.43741,
    "lng": 103.79,
    "name": "Bomb Shelter",
    "description": "892A Woodlands Drive 50, Singapore 730892",
    "id": 484
  },
  {
    "full_address": "894B Woodlands Drive 50, Singapore 731894",
    "address_line": "",
    "address": "894B Woodlands Drive 50",
    "postal_code": "731894",
    "lat": 1.43612,
    "lng": 103.79,
    "name": "Bomb Shelter",
    "description": "894B Woodlands Drive 50, Singapore 731894",
    "id": 485
  },
  {
    "full_address": "894B Woodlands Drive 50, Singapore 731894",
    "address_line": "",
    "address": "894B Woodlands Drive 50",
    "postal_code": "731894",
    "lat": 1.43612,
    "lng": 103.79,
    "name": "Bomb Shelter",
    "description": "894B Woodlands Drive 50, Singapore 731894",
    "id": 486
  },
  {
    "full_address": "897A Woodlands Drive 50, Singapore 730897",
    "address_line": "",
    "address": "897A Woodlands Drive 50",
    "postal_code": "730897",
    "lat": 1.43652,
    "lng": 103.794,
    "name": "Bomb Shelter",
    "description": "897A Woodlands Drive 50, Singapore 730897",
    "id": 487
  },
  {
    "full_address": "899A Woodlands Drive 50, Singapore 730899",
    "address_line": "",
    "address": "899A Woodlands Drive 50",
    "postal_code": "730899",
    "lat": 1.43577,
    "lng": 103.795,
    "name": "Bomb Shelter",
    "description": "899A Woodlands Drive 50, Singapore 730899",
    "id": 488
  },
  {
    "full_address": "899C Woodlands Drive 50, Singapore 732899",
    "address_line": "",
    "address": "899C Woodlands Drive 50",
    "postal_code": "732899",
    "lat": 1.43653,
    "lng": 103.795,
    "name": "Bomb Shelter",
    "description": "899C Woodlands Drive 50, Singapore 732899",
    "id": 489
  },
  {
    "full_address": "504 Choa Chu Kang Street 51, Singapore 680504",
    "address_line": "",
    "address": "504 Choa Chu Kang Street 51",
    "postal_code": "680504",
    "lat": 1.38899,
    "lng": 103.743,
    "name": "Bomb Shelter",
    "description": "504 Choa Chu Kang Street 51, Singapore 680504",
    "id": 490
  },
  {
    "full_address": "505 Choa Chu Kang Street 51, Singapore 680505",
    "address_line": "",
    "address": "505 Choa Chu Kang Street 51",
    "postal_code": "680505",
    "lat": 1.38901,
    "lng": 103.742,
    "name": "Bomb Shelter",
    "description": "505 Choa Chu Kang Street 51, Singapore 680505",
    "id": 491
  },
  {
    "full_address": "541 Choa Chu Kang Street 52, Singapore 680541",
    "address_line": "",
    "address": "541 Choa Chu Kang Street 52",
    "postal_code": "680541",
    "lat": 1.393,
    "lng": 103.744,
    "name": "Bomb Shelter",
    "description": "541 Choa Chu Kang Street 52, Singapore 680541",
    "id": 492
  },
  {
    "full_address": "15 Pasir Ris Street 21, Singapore 518969",
    "address_line": "",
    "address": "15 Pasir Ris Street 21",
    "postal_code": "518969",
    "lat": 1.36935,
    "lng": 103.963,
    "name": "Bomb Shelter",
    "description": "15 Pasir Ris Street 21, Singapore 518969",
    "id": 493
  },
  {
    "full_address": "544 Choa Chu Kang Street 52, Singapore 680544",
    "address_line": "",
    "address": "544 Choa Chu Kang Street 52",
    "postal_code": "680544",
    "lat": 1.39376,
    "lng": 103.744,
    "name": "Bomb Shelter",
    "description": "544 Choa Chu Kang Street 52, Singapore 680544",
    "id": 494
  },
  {
    "full_address": "549 Choa Chu Kang Street 52, Singapore 680549",
    "address_line": "",
    "address": "549 Choa Chu Kang Street 52",
    "postal_code": "680549",
    "lat": 1.39364,
    "lng": 103.743,
    "name": "Bomb Shelter",
    "description": "549 Choa Chu Kang Street 52, Singapore 680549",
    "id": 495
  },
  {
    "full_address": "555 Choa Chu Kang North 6, Singapore 680555",
    "address_line": "",
    "address": "555 Choa Chu Kang North 6",
    "postal_code": "680555",
    "lat": 1.39627,
    "lng": 103.744,
    "name": "Bomb Shelter",
    "description": "555 Choa Chu Kang North 6, Singapore 680555",
    "id": 496
  },
  {
    "full_address": "561 Choa Chu Kang North 6, Singapore 680561",
    "address_line": "",
    "address": "561 Choa Chu Kang North 6",
    "postal_code": "680561",
    "lat": 1.39632,
    "lng": 103.745,
    "name": "Bomb Shelter",
    "description": "561 Choa Chu Kang North 6, Singapore 680561",
    "id": 497
  },
  {
    "full_address": "601 Choa Chu Kang Street 62, Singapore 680601",
    "address_line": "",
    "address": "601 Choa Chu Kang Street 62",
    "postal_code": "680601",
    "lat": 1.39703,
    "lng": 103.745,
    "name": "Bomb Shelter",
    "description": "601 Choa Chu Kang Street 62, Singapore 680601",
    "id": 498
  },
  {
    "full_address": "610 Choa Chu Kang Street 62, Singapore 680610",
    "address_line": "",
    "address": "610 Choa Chu Kang Street 62",
    "postal_code": "680610",
    "lat": 1.39941,
    "lng": 103.744,
    "name": "Bomb Shelter",
    "description": "610 Choa Chu Kang Street 62, Singapore 680610",
    "id": 499
  },
  {
    "full_address": "614 Choa Chu Kang Street 62, Singapore 680614",
    "address_line": "",
    "address": "614 Choa Chu Kang Street 62",
    "postal_code": "680614",
    "lat": 1.40105,
    "lng": 103.744,
    "name": "Bomb Shelter",
    "description": "614 Choa Chu Kang Street 62, Singapore 680614",
    "id": 500
  },
  {
    "full_address": "620 Choa Chu Kang Street 62, Singapore 680620",
    "address_line": "",
    "address": "620 Choa Chu Kang Street 62",
    "postal_code": "680620",
    "lat": 1.39955,
    "lng": 103.747,
    "name": "Bomb Shelter",
    "description": "620 Choa Chu Kang Street 62, Singapore 680620",
    "id": 501
  },
  {
    "full_address": "626 Choa Chu Kang Street 62, Singapore 680626",
    "address_line": "",
    "address": "626 Choa Chu Kang Street 62",
    "postal_code": "680626",
    "lat": 1.39833,
    "lng": 103.746,
    "name": "Bomb Shelter",
    "description": "626 Choa Chu Kang Street 62, Singapore 680626",
    "id": 502
  },
  {
    "full_address": "632A Choa Chu Kang North 6, Singapore 681632",
    "address_line": "",
    "address": "632A Choa Chu Kang North 6",
    "postal_code": "681632",
    "lat": 1.3969,
    "lng": 103.749,
    "name": "Bomb Shelter",
    "description": "632A Choa Chu Kang North 6, Singapore 681632",
    "id": 503
  },
  {
    "full_address": "639 Choa Chu Kang Street 64, Singapore 680639",
    "address_line": "",
    "address": "639 Choa Chu Kang Street 64",
    "postal_code": "680639",
    "lat": 1.39785,
    "lng": 103.749,
    "name": "Bomb Shelter",
    "description": "639 Choa Chu Kang Street 64, Singapore 680639",
    "id": 504
  },
  {
    "full_address": "642 Choa Chu Kang Street 64, Singapore 680642",
    "address_line": "",
    "address": "642 Choa Chu Kang Street 64",
    "postal_code": "680642",
    "lat": 1.39851,
    "lng": 103.749,
    "name": "Bomb Shelter",
    "description": "642 Choa Chu Kang Street 64, Singapore 680642",
    "id": 505
  },
  {
    "full_address": "660 Choa Chu Kang Crescent, Singapore 680660",
    "address_line": "",
    "address": "660 Choa Chu Kang Crescent",
    "postal_code": "680660",
    "lat": 1.40115,
    "lng": 103.75,
    "name": "Bomb Shelter",
    "description": "660 Choa Chu Kang Crescent, Singapore 680660",
    "id": 506
  },
  {
    "full_address": "704 Choa Chu Kang Street 53, Singapore 680704",
    "address_line": "",
    "address": "704 Choa Chu Kang Street 53",
    "postal_code": "680704",
    "lat": 1.39074,
    "lng": 103.746,
    "name": "Bomb Shelter",
    "description": "704 Choa Chu Kang Street 53, Singapore 680704",
    "id": 507
  },
  {
    "full_address": "707 Choa Chu Kang Street 53, Singapore 680707",
    "address_line": "",
    "address": "707 Choa Chu Kang Street 53",
    "postal_code": "680707",
    "lat": 1.39047,
    "lng": 103.747,
    "name": "Bomb Shelter",
    "description": "707 Choa Chu Kang Street 53, Singapore 680707",
    "id": 508
  },
  {
    "full_address": "753 Choa Chu Kang North 5, Singapore 680753",
    "address_line": "",
    "address": "753 Choa Chu Kang North 5",
    "postal_code": "680753",
    "lat": 1.39243,
    "lng": 103.747,
    "name": "Bomb Shelter",
    "description": "753 Choa Chu Kang North 5, Singapore 680753",
    "id": 509
  },
  {
    "full_address": "759 Choa Chu Kang North 5, Singapore 680759",
    "address_line": "",
    "address": "759 Choa Chu Kang North 5",
    "postal_code": "680759",
    "lat": 1.39333,
    "lng": 103.747,
    "name": "Bomb Shelter",
    "description": "759 Choa Chu Kang North 5, Singapore 680759",
    "id": 510
  },
  {
    "full_address": "764 Choa Chu Kang North 5, Singapore 680764",
    "address_line": "",
    "address": "764 Choa Chu Kang North 5",
    "postal_code": "680764",
    "lat": 1.39327,
    "lng": 103.749,
    "name": "Bomb Shelter",
    "description": "764 Choa Chu Kang North 5, Singapore 680764",
    "id": 511
  },
  {
    "full_address": "768 Choa Chu Kang Street 54, Singapore 680768",
    "address_line": "",
    "address": "768 Choa Chu Kang Street 54",
    "postal_code": "680768",
    "lat": 1.39416,
    "lng": 103.75,
    "name": "Bomb Shelter",
    "description": "768 Choa Chu Kang Street 54, Singapore 680768",
    "id": 512
  },
  {
    "full_address": "785 Choa Chu Kang Drive, Singapore 680785",
    "address_line": "",
    "address": "785 Choa Chu Kang Drive",
    "postal_code": "680785",
    "lat": 1.39485,
    "lng": 103.748,
    "name": "Bomb Shelter",
    "description": "785 Choa Chu Kang Drive, Singapore 680785",
    "id": 513
  },
  {
    "full_address": "790 Choa Chu Kang North 6, Singapore 680790",
    "address_line": "",
    "address": "790 Choa Chu Kang North 6",
    "postal_code": "680790",
    "lat": 1.39601,
    "lng": 103.75,
    "name": "Bomb Shelter",
    "description": "790 Choa Chu Kang North 6, Singapore 680790",
    "id": 514
  },
  {
    "full_address": "Saint Gabriel's Secondary School, 24 Serangoon Avenue 1, Singapore 556140",
    "address_line": "Saint Gabriel's Secondary School",
    "address": "24 Serangoon Avenue 1",
    "postal_code": "556140",
    "lat": 1.34626,
    "lng": 103.876,
    "name": "Bomb Shelter",
    "description": "Saint Gabriel's Secondary School, 24 Serangoon Avenue 1, Singapore 556140",
    "id": 515
  },
  {
    "full_address": "Greenridge Secondary School, 32 Bukit Panjang Ring Road, Singapore 679938",
    "address_line": "Greenridge Secondary School",
    "address": "32 Bukit Panjang Ring Road",
    "postal_code": "679938",
    "lat": 1.38186,
    "lng": 103.774,
    "name": "Bomb Shelter",
    "description": "Greenridge Secondary School, 32 Bukit Panjang Ring Road, Singapore 679938",
    "id": 516
  },
  {
    "full_address": "Anderson Secondary School, 10 Ang Mo Kio Street 53, Singapore 569206",
    "address_line": "Anderson Secondary School",
    "address": "10 Ang Mo Kio Street 53",
    "postal_code": "569206",
    "lat": 1.37454,
    "lng": 103.851,
    "name": "Bomb Shelter",
    "description": "Anderson Secondary School, 10 Ang Mo Kio Street 53, Singapore 569206",
    "id": 517
  },
  {
    "full_address": "Damai Secondary School, 4800 Bedok Reservoir Road, Singapore 479229",
    "address_line": "Damai Secondary School",
    "address": "4800 Bedok Reservoir Road",
    "postal_code": "479229",
    "lat": 1.33707,
    "lng": 103.927,
    "name": "Bomb Shelter",
    "description": "Damai Secondary School, 4800 Bedok Reservoir Road, Singapore 479229",
    "id": 518
  },
  {
    "full_address": "Dunearn Secondary School, 21 Bukit Batok West Avenue 2, Singapore 659204",
    "address_line": "Dunearn Secondary School",
    "address": "21 Bukit Batok West Avenue 2",
    "postal_code": "659204",
    "lat": 1.3634,
    "lng": 103.744,
    "name": "Bomb Shelter",
    "description": "Dunearn Secondary School, 21 Bukit Batok West Avenue 2, Singapore 659204",
    "id": 519
  },
  {
    "full_address": "Northland Secondary School, 3 Yishun Street 22, Singapore 768578",
    "address_line": "Northland Secondary School",
    "address": "3 Yishun Street 22",
    "postal_code": "768578",
    "lat": 1.43566,
    "lng": 103.84,
    "name": "Bomb Shelter",
    "description": "Northland Secondary School, 3 Yishun Street 22, Singapore 768578",
    "id": 520
  },
  {
    "full_address": "Ngee Ann Secondary School, 1 Tampines Street 32, Singapore 529283",
    "address_line": "Ngee Ann Secondary School",
    "address": "1 Tampines Street 32",
    "postal_code": "529283",
    "lat": 1.35432,
    "lng": 103.957,
    "name": "Bomb Shelter",
    "description": "Ngee Ann Secondary School, 1 Tampines Street 32, Singapore 529283",
    "id": 521
  },
  {
    "full_address": "931 Jurong West Street 42, Singapore 649370",
    "address_line": "",
    "address": "931 Jurong West Street 42",
    "postal_code": "649370",
    "lat": 1.35223,
    "lng": 103.727,
    "name": "Bomb Shelter",
    "description": "931 Jurong West Street 42, Singapore 649370",
    "id": 522
  },
  {
    "full_address": "Peirce Secondary School, 10 Sin Ming Walk, Singapore 575566",
    "address_line": "Peirce Secondary School",
    "address": "10 Sin Ming Walk",
    "postal_code": "575566",
    "lat": 1.36639,
    "lng": 103.83,
    "name": "Bomb Shelter",
    "description": "Peirce Secondary School, 10 Sin Ming Walk, Singapore 575566",
    "id": 523
  },
  {
    "full_address": "Fajar Secondary School, 31 Gangsa Road, Singapore 678972",
    "address_line": "Fajar Secondary School",
    "address": "31 Gangsa Road",
    "postal_code": "678972",
    "lat": 1.37574,
    "lng": 103.764,
    "name": "Bomb Shelter",
    "description": "Fajar Secondary School, 31 Gangsa Road, Singapore 678972",
    "id": 524
  },
  {
    "full_address": "Crest Secondary School, 561 Jurong East Street 24, Singapore 609561",
    "address_line": "Crest Secondary School",
    "address": "561 Jurong East Street 24",
    "postal_code": "609561",
    "lat": 1.34331,
    "lng": 103.743,
    "name": "Bomb Shelter",
    "description": "Crest Secondary School, 561 Jurong East Street 24, Singapore 609561",
    "id": 525
  },
  {
    "full_address": "Kranji Secondary School, 61 Choa Chu Kang Street 51, Singapore 689333",
    "address_line": "Kranji Secondary School",
    "address": "61 Choa Chu Kang Street 51",
    "postal_code": "689333",
    "lat": 1.39007,
    "lng": 103.741,
    "name": "Bomb Shelter",
    "description": "Kranji Secondary School, 61 Choa Chu Kang Street 51, Singapore 689333",
    "id": 526
  },
  {
    "full_address": "One World International School (Nanyang Campus), 21 Jurong West Street 81, Singapore 649075",
    "address_line": "One World International School (Nanyang Campus)",
    "address": "21 Jurong West Street 81",
    "postal_code": "649075",
    "lat": 1.34753,
    "lng": 103.695,
    "name": "Bomb Shelter",
    "description": "One World International School (Nanyang Campus), 21 Jurong West Street 81, Singapore 649075",
    "id": 527
  },
  {
    "full_address": "Whitley Secondary School, 30 Bishan Street 24, Singapore 579747",
    "address_line": "Whitley Secondary School",
    "address": "30 Bishan Street 24",
    "postal_code": "579747",
    "lat": 1.35495,
    "lng": 103.842,
    "name": "Bomb Shelter",
    "description": "Whitley Secondary School, 30 Bishan Street 24, Singapore 579747",
    "id": 528
  },
  {
    "full_address": "Bukit Panjang Government High School, 7 Choa Chu Kang Avenue 4, Singapore 689809",
    "address_line": "Bukit Panjang Government High School",
    "address": "7 Choa Chu Kang Avenue 4",
    "postal_code": "689809",
    "lat": 1.38202,
    "lng": 103.739,
    "name": "Bomb Shelter",
    "description": "Bukit Panjang Government High School, 7 Choa Chu Kang Avenue 4, Singapore 689809",
    "id": 529
  },
  {
    "full_address": "Crescent Girls' School, 357 Tanglin Road, Singapore 247961",
    "address_line": "Crescent Girls' School",
    "address": "357 Tanglin Road",
    "postal_code": "247961",
    "lat": 1.29294,
    "lng": 103.818,
    "name": "Bomb Shelter",
    "description": "Crescent Girls' School, 357 Tanglin Road, Singapore 247961",
    "id": 530
  },
  {
    "full_address": "Katong Student Hostel, 369 Tanjong Katong Road, Singapore 437126",
    "address_line": "Katong Student Hostel",
    "address": "369 Tanjong Katong Road",
    "postal_code": "437126",
    "lat": 1.30544,
    "lng": 103.897,
    "name": "Bomb Shelter",
    "description": "Katong Student Hostel, 369 Tanjong Katong Road, Singapore 437126",
    "id": 531
  },
  {
    "full_address": "Anglo-Chinese School (Junior), 16 Winstedt Road, Singapore 227988",
    "address_line": "Anglo-Chinese School (Junior)",
    "address": "16 Winstedt Road",
    "postal_code": "227988",
    "lat": 1.30949,
    "lng": 103.841,
    "name": "Bomb Shelter",
    "description": "Anglo-Chinese School (Junior), 16 Winstedt Road, Singapore 227988",
    "id": 532
  },
  {
    "full_address": "Tanglin Secondary School, 301 West Coast Road, Singapore 127391",
    "address_line": "Tanglin Secondary School",
    "address": "301 West Coast Road",
    "postal_code": "127391",
    "lat": 1.30951,
    "lng": 103.758,
    "name": "Bomb Shelter",
    "description": "Tanglin Secondary School, 301 West Coast Road, Singapore 127391",
    "id": 533
  },
  {
    "full_address": "Cedar Girls' Secondary School, 1 Cedar Avenue, Singapore 349692",
    "address_line": "Cedar Girls' Secondary School",
    "address": "1 Cedar Avenue",
    "postal_code": "349692",
    "lat": 1.3336,
    "lng": 103.874,
    "name": "Bomb Shelter",
    "description": "Cedar Girls' Secondary School, 1 Cedar Avenue, Singapore 349692",
    "id": 534
  },
  {
    "full_address": "Bartley Secondary School, 10 Jalan Bunga Rampai, Singapore 538403",
    "address_line": "Bartley Secondary School",
    "address": "10 Jalan Bunga Rampai",
    "postal_code": "538403",
    "lat": 1.34015,
    "lng": 103.883,
    "name": "Bomb Shelter",
    "description": "Bartley Secondary School, 10 Jalan Bunga Rampai, Singapore 538403",
    "id": 535
  },
  {
    "full_address": "Dunman High School, 10 Tanjong Rhu Road, Singapore 436895",
    "address_line": "Dunman High School",
    "address": "10 Tanjong Rhu Road",
    "postal_code": "436895",
    "lat": 1.30011,
    "lng": 103.883,
    "name": "Bomb Shelter",
    "description": "Dunman High School, 10 Tanjong Rhu Road, Singapore 436895",
    "id": 536
  },
  {
    "full_address": "10 Pasir Ris Drive 10, Singapore 519385",
    "address_line": "",
    "address": "10 Pasir Ris Drive 10",
    "postal_code": "519385",
    "lat": 1.38053,
    "lng": 103.94,
    "name": "Bomb Shelter",
    "description": "10 Pasir Ris Drive 10, Singapore 519385",
    "id": 537
  },
  {
    "full_address": "Queenstown Secondary School, 1 Strathmore Road, Singapore 148800",
    "address_line": "Queenstown Secondary School",
    "address": "1 Strathmore Road",
    "postal_code": "148800",
    "lat": 1.2935,
    "lng": 103.813,
    "name": "Bomb Shelter",
    "description": "Queenstown Secondary School, 1 Strathmore Road, Singapore 148800",
    "id": 538
  },
  {
    "full_address": "11 Novena Rise, Singapore 307516",
    "address_line": "",
    "address": "11 Novena Rise",
    "postal_code": "307516",
    "lat": 1.32464,
    "lng": 103.844,
    "name": "Bomb Shelter",
    "description": "11 Novena Rise, Singapore 307516",
    "id": 539
  },
  {
    "full_address": "100 Henderson Road, Singapore 159544",
    "address_line": "",
    "address": "100 Henderson Road",
    "postal_code": "159544",
    "lat": 1.28535,
    "lng": 103.82,
    "name": "Bomb Shelter",
    "description": "100 Henderson Road, Singapore 159544",
    "id": 540
  },
  {
    "full_address": "Bendemeer Secondary School, 1 Saint Wilfred Road, Singapore 327919",
    "address_line": "Bendemeer Secondary School",
    "address": "1 Saint Wilfred Road",
    "postal_code": "327919",
    "lat": 1.32472,
    "lng": 103.861,
    "name": "Bomb Shelter",
    "description": "Bendemeer Secondary School, 1 Saint Wilfred Road, Singapore 327919",
    "id": 541
  },
  {
    "full_address": "New Town Secondary School, 1020 Dover Road, Singapore 139657",
    "address_line": "New Town Secondary School",
    "address": "1020 Dover Road",
    "postal_code": "139657",
    "lat": 1.30995,
    "lng": 103.773,
    "name": "Bomb Shelter",
    "description": "New Town Secondary School, 1020 Dover Road, Singapore 139657",
    "id": 542
  },
  {
    "full_address": "Tanjong Katong Secondary School, 130 Haig Road, Singapore 438796",
    "address_line": "Tanjong Katong Secondary School",
    "address": "130 Haig Road",
    "postal_code": "438796",
    "lat": 1.30853,
    "lng": 103.897,
    "name": "Bomb Shelter",
    "description": "Tanjong Katong Secondary School, 130 Haig Road, Singapore 438796",
    "id": 543
  },
  {
    "full_address": "Woodlands Ring Secondary School, 10 Woodlands Ring Road, Singapore 738239",
    "address_line": "Woodlands Ring Secondary School",
    "address": "10 Woodlands Ring Road",
    "postal_code": "738239",
    "lat": 1.43659,
    "lng": 103.8,
    "name": "Bomb Shelter",
    "description": "Woodlands Ring Secondary School, 10 Woodlands Ring Road, Singapore 738239",
    "id": 544
  },
  {
    "full_address": "Sembawang Secondary School, 30 Sembawang Crescent, Singapore 757704",
    "address_line": "Sembawang Secondary School",
    "address": "30 Sembawang Crescent",
    "postal_code": "757704",
    "lat": 1.44549,
    "lng": 103.817,
    "name": "Bomb Shelter",
    "description": "Sembawang Secondary School, 30 Sembawang Crescent, Singapore 757704",
    "id": 545
  },
  {
    "full_address": "Serangoon Secondary School, 11 Upper Serangoon View, Singapore 534237",
    "address_line": "Serangoon Secondary School",
    "address": "11 Upper Serangoon View",
    "postal_code": "534237",
    "lat": 1.3747,
    "lng": 103.902,
    "name": "Bomb Shelter",
    "description": "Serangoon Secondary School, 11 Upper Serangoon View, Singapore 534237",
    "id": 546
  },
  {
    "full_address": "Woodgrove Secondary School, 3 Woodlands Avenue 6, Singapore 738990",
    "address_line": "Woodgrove Secondary School",
    "address": "3 Woodlands Avenue 6",
    "postal_code": "738990",
    "lat": 1.42834,
    "lng": 103.796,
    "name": "Bomb Shelter",
    "description": "Woodgrove Secondary School, 3 Woodlands Avenue 6, Singapore 738990",
    "id": 547
  },
  {
    "full_address": "Orchid Park Secondary School, 10 Yishun Street 81, Singapore 768454",
    "address_line": "Orchid Park Secondary School",
    "address": "10 Yishun Street 81",
    "postal_code": "768454",
    "lat": 1.41526,
    "lng": 103.838,
    "name": "Bomb Shelter",
    "description": "Orchid Park Secondary School, 10 Yishun Street 81, Singapore 768454",
    "id": 548
  },
  {
    "full_address": "Zhonghua Secondary School, 13 Serangoon Avenue 3, Singapore 556123",
    "address_line": "Zhonghua Secondary School",
    "address": "13 Serangoon Avenue 3",
    "postal_code": "556123",
    "lat": 1.34857,
    "lng": 103.869,
    "name": "Bomb Shelter",
    "description": "Zhonghua Secondary School, 13 Serangoon Avenue 3, Singapore 556123",
    "id": 549
  },
  {
    "full_address": "Seng Kang Secondary School, 10 Compassvale Lane, Singapore 545090",
    "address_line": "Seng Kang Secondary School",
    "address": "10 Compassvale Lane",
    "postal_code": "545090",
    "lat": 1.38597,
    "lng": 103.899,
    "name": "Bomb Shelter",
    "description": "Seng Kang Secondary School, 10 Compassvale Lane, Singapore 545090",
    "id": 550
  },
  {
    "full_address": "Yusof Ishak Secondary School, 11 Bukit Batok Street 25, Singapore 658712",
    "address_line": "Yusof Ishak Secondary School",
    "address": "11 Bukit Batok Street 25",
    "postal_code": "658712",
    "lat": 1.34215,
    "lng": 103.76,
    "name": "Bomb Shelter",
    "description": "Yusof Ishak Secondary School, 11 Bukit Batok Street 25, Singapore 658712",
    "id": 551
  },
  {
    "full_address": "Junyuan Secondary School, 11 Tampines Street 84, Singapore 528933",
    "address_line": "Junyuan Secondary School",
    "address": "11 Tampines Street 84",
    "postal_code": "528933",
    "lat": 1.35373,
    "lng": 103.934,
    "name": "Bomb Shelter",
    "description": "Junyuan Secondary School, 11 Tampines Street 84, Singapore 528933",
    "id": 552
  },
  {
    "full_address": "Temasek Secondary School, 600 Upper East Coast Road, Singapore 465561",
    "address_line": "Temasek Secondary School",
    "address": "600 Upper East Coast Road",
    "postal_code": "465561",
    "lat": 1.31611,
    "lng": 103.948,
    "name": "Bomb Shelter",
    "description": "Temasek Secondary School, 600 Upper East Coast Road, Singapore 465561",
    "id": 553
  },
  {
    "full_address": "Hwa Chong Institution, 661 Bukit Timah Road, Singapore 269734",
    "address_line": "Hwa Chong Institution",
    "address": "661 Bukit Timah Road",
    "postal_code": "269734",
    "lat": 1.32572,
    "lng": 103.803,
    "name": "Bomb Shelter",
    "description": "Hwa Chong Institution, 661 Bukit Timah Road, Singapore 269734",
    "id": 554
  },
  {
    "full_address": "Unity Secondary School, 20 Choa Chu Kang Street 62, Singapore 689143",
    "address_line": "Unity Secondary School",
    "address": "20 Choa Chu Kang Street 62",
    "postal_code": "689143",
    "lat": 1.40016,
    "lng": 103.746,
    "name": "Bomb Shelter",
    "description": "Unity Secondary School, 20 Choa Chu Kang Street 62, Singapore 689143",
    "id": 555
  },
  {
    "full_address": "Boon Lay Secondary School, 11 Jurong West Street 65, Singapore 648354",
    "address_line": "Boon Lay Secondary School",
    "address": "11 Jurong West Street 65",
    "postal_code": "648354",
    "lat": 1.34274,
    "lng": 103.702,
    "name": "Bomb Shelter",
    "description": "Boon Lay Secondary School, 11 Jurong West Street 65, Singapore 648354",
    "id": 556
  },
  {
    "full_address": "Meridian Secondary School, 31 Pasir Ris Street 51, Singapore 518901",
    "address_line": "Meridian Secondary School",
    "address": "31 Pasir Ris Street 51",
    "postal_code": "518901",
    "lat": 1.36738,
    "lng": 103.949,
    "name": "Bomb Shelter",
    "description": "Meridian Secondary School, 31 Pasir Ris Street 51, Singapore 518901",
    "id": 557
  },
  {
    "full_address": "Northbrooks Secondary School, 585 Yishun Ring Road, Singapore 768692",
    "address_line": "Northbrooks Secondary School",
    "address": "585 Yishun Ring Road",
    "postal_code": "768692",
    "lat": 1.42152,
    "lng": 103.844,
    "name": "Bomb Shelter",
    "description": "Northbrooks Secondary School, 585 Yishun Ring Road, Singapore 768692",
    "id": 558
  },
  {
    "full_address": "20 Jalan Damai, Singapore 419612",
    "address_line": "",
    "address": "20 Jalan Damai",
    "postal_code": "419612",
    "lat": 1.33483,
    "lng": 103.911,
    "name": "Bomb Shelter",
    "description": "20 Jalan Damai, Singapore 419612",
    "id": 559
  },
  {
    "full_address": "East Spring Secondary School, 30 Tampines Street 34, Singapore 529231",
    "address_line": "East Spring Secondary School",
    "address": "30 Tampines Street 34",
    "postal_code": "529231",
    "lat": 1.35612,
    "lng": 103.961,
    "name": "Bomb Shelter",
    "description": "East Spring Secondary School, 30 Tampines Street 34, Singapore 529231",
    "id": 560
  },
  {
    "full_address": "Nan Hua Primary School, 170 West Coast Road, Singapore 127443",
    "address_line": "Nan Hua Primary School",
    "address": "170 West Coast Road",
    "postal_code": "127443",
    "lat": 1.30617,
    "lng": 103.765,
    "name": "Bomb Shelter",
    "description": "Nan Hua Primary School, 170 West Coast Road, Singapore 127443",
    "id": 561
  },
  {
    "full_address": "Pasir Ris Crest Secondary School, 11 Pasir Ris Street 41, Singapore 518934",
    "address_line": "Pasir Ris Crest Secondary School",
    "address": "11 Pasir Ris Street 41",
    "postal_code": "518934",
    "lat": 1.37279,
    "lng": 103.96,
    "name": "Bomb Shelter",
    "description": "Pasir Ris Crest Secondary School, 11 Pasir Ris Street 41, Singapore 518934",
    "id": 562
  },
  {
    "full_address": "Changkat Changi Secondary School, 23 Simei Street 3, Singapore 529894",
    "address_line": "Changkat Changi Secondary School",
    "address": "23 Simei Street 3",
    "postal_code": "529894",
    "lat": 1.33935,
    "lng": 103.953,
    "name": "Bomb Shelter",
    "description": "Changkat Changi Secondary School, 23 Simei Street 3, Singapore 529894",
    "id": 563
  },
  {
    "full_address": "58 Chestnut Drive, Singapore 679301",
    "address_line": "",
    "address": "58 Chestnut Drive",
    "postal_code": "679301",
    "lat": 1.36874,
    "lng": 103.771,
    "name": "Bomb Shelter",
    "description": "58 Chestnut Drive, Singapore 679301",
    "id": 564
  },
  {
    "full_address": "2 Ang Mo Kio Street 44, Singapore 569250",
    "address_line": "",
    "address": "2 Ang Mo Kio Street 44",
    "postal_code": "569250",
    "lat": 1.3635,
    "lng": 103.858,
    "name": "Bomb Shelter",
    "description": "2 Ang Mo Kio Street 44, Singapore 569250",
    "id": 565
  },
  {
    "full_address": "Kent Ridge Secondary School, 147 West Coast Road, Singapore 127368",
    "address_line": "Kent Ridge Secondary School",
    "address": "147 West Coast Road",
    "postal_code": "127368",
    "lat": 1.30147,
    "lng": 103.765,
    "name": "Bomb Shelter",
    "description": "Kent Ridge Secondary School, 147 West Coast Road, Singapore 127368",
    "id": 566
  },
  {
    "full_address": "Teck Whye Secondary School, 31 Teck Whye Crescent, Singapore 688848",
    "address_line": "Teck Whye Secondary School",
    "address": "31 Teck Whye Crescent",
    "postal_code": "688848",
    "lat": 1.38331,
    "lng": 103.755,
    "name": "Bomb Shelter",
    "description": "Teck Whye Secondary School, 31 Teck Whye Crescent, Singapore 688848",
    "id": 567
  },
  {
    "full_address": "Yio Chu Kang Secondary School, 3063 Ang Mo Kio Avenue 5, Singapore 569868",
    "address_line": "Yio Chu Kang Secondary School",
    "address": "3063 Ang Mo Kio Avenue 5",
    "postal_code": "569868",
    "lat": 1.37808,
    "lng": 103.842,
    "name": "Bomb Shelter",
    "description": "Yio Chu Kang Secondary School, 3063 Ang Mo Kio Avenue 5, Singapore 569868",
    "id": 568
  },
  {
    "full_address": "Bedok South Secondary School, 1 Jalan Langgar Bedok, Singapore 468585",
    "address_line": "Bedok South Secondary School",
    "address": "1 Jalan Langgar Bedok",
    "postal_code": "468585",
    "lat": 1.32535,
    "lng": 103.951,
    "name": "Bomb Shelter",
    "description": "Bedok South Secondary School, 1 Jalan Langgar Bedok, Singapore 468585",
    "id": 569
  },
  {
    "full_address": "Bukit Merah Secondary School, 10 Lengkok Bahru, Singapore 159050",
    "address_line": "Bukit Merah Secondary School",
    "address": "10 Lengkok Bahru",
    "postal_code": "159050",
    "lat": 1.28571,
    "lng": 103.813,
    "name": "Bomb Shelter",
    "description": "Bukit Merah Secondary School, 10 Lengkok Bahru, Singapore 159050",
    "id": 570
  },
  {
    "full_address": "121 Circuit Road, Singapore 379499",
    "address_line": "",
    "address": "121 Circuit Road",
    "postal_code": "379499",
    "lat": 1.32734,
    "lng": 103.888,
    "name": "Bomb Shelter",
    "description": "121 Circuit Road, Singapore 379499",
    "id": 571
  },
  {
    "full_address": "Deyi Secondary School, 1 Ang Mo Kio Street 42, Singapore 569277",
    "address_line": "Deyi Secondary School",
    "address": "1 Ang Mo Kio Street 42",
    "postal_code": "569277",
    "lat": 1.36586,
    "lng": 103.853,
    "name": "Bomb Shelter",
    "description": "Deyi Secondary School, 1 Ang Mo Kio Street 42, Singapore 569277",
    "id": 572
  },
  {
    "full_address": "Admiralty Secondary School, 31 Woodlands Crescent, Singapore 737916",
    "address_line": "Admiralty Secondary School",
    "address": "31 Woodlands Crescent",
    "postal_code": "737916",
    "lat": 1.4458,
    "lng": 103.803,
    "name": "Bomb Shelter",
    "description": "Admiralty Secondary School, 31 Woodlands Crescent, Singapore 737916",
    "id": 573
  }
]